~Version ---------------------------------------------------
VERS.   2.0 : CWLS log ASCII Standard -VERSION 2.0
WRAP.    NO : One line per depth step
DLM . SPACE : Column Data Section Delimiter
~Well ------------------------------------------------------
STRT.m    3837.00000 : START DEPTH
STOP.m    4016.70000 : STOP DEPTH
STEP.m       0.10000 : STEP
NULL.       -9999.25 : NULL VALUE
COMP.                : COMPANY
WELL. Volve 15_9-19A : WELL
FLD .                : FIELD
LOC .                : LOCATION
PROV.                : PROVINCE
CNTY.                : COUNTY
STAT.                : STATE
CTRY.                : COUNTRY
SRVC.                : SERVICE COMPANY
DATE.                : DATE
UWI .                : UNIQUE WELL ID
API .                : API NUMBER
~Curve Information -----------------------------------------
DEPTH.m   [3837.  3837.1 3837.2 ... 4016.5 4016.6 4016.7] : DEPTH
GR   .c/min           [3047 3343 3174 ... 3107 2945 2783] : GR
K    .%         [1.697 1.462 1.618 ... 1.442 1.53  1.618] : K
U    .ppm [17.854 17.727 19.406 ... 19.018 21.735 24.452] : U
TH   .ppm [62.429 69.207 61.814 ... 67.965 64.274 60.583] : TH
~Params ----------------------------------------------------
~Other -----------------------------------------------------
~ASCII -----------------------------------------------------
# ...
 3924.50000 3008.00000    1.68700   19.79400   55.97100
 3924.60000 3028.00000    1.63800   19.53500   56.27900
 3924.70000 3187.00000    1.70700   20.82900   63.96700
 3924.80000 3184.00000    1.57900   19.79800   56.59600
 3924.90000 3162.00000    1.45200   20.70000   57.50900
 3925.00000 3110.00000    1.35300   20.18200   62.73700
 3925.10000 3437.00000    1.81500   22.64400   64.90000
 3925.20000 3465.00000    1.58900   22.12300   58.73900
 3925.30000 3427.00000    1.71600   22.89900   54.12600
 3925.40000 3477.00000    1.78500   20.57000   73.19300
 3925.50000 3625.00000    1.53000   21.35000   62.44000
 3925.60000 3670.00000    1.73600   20.83300   59.97900
 3925.70000 3667.00000    1.71700   23.42100   58.13300
 3925.80000 3312.00000    1.57900   21.73500   59.35400
 3925.90000 2770.00000    1.55000   21.34700   60.58400
 3926.00000 2726.00000    1.37300   18.75900   60.27600
 3926.10000 3173.00000    1.66700   19.66200   73.48800
 3926.20000 3179.00000    1.38300   17.72100   89.17000
 3926.30000 3255.00000    1.63800   17.59200   64.57100
 3926.40000 3158.00000    1.70600   18.62700   74.10300
 3926.50000 3280.00000    1.56900   20.05300   78.72800
 3926.60000 3248.00000    1.72600   20.43800   71.64300
 3926.70000 3233.00000    1.47100   18.88500   76.56300
 3926.80000 3182.00000    1.54900   17.33300   62.72600
 3926.90000 3220.00000    1.58900   19.27300   74.41100
 3927.00000 3126.00000    1.35300   17.72100   68.56800
 3927.10000 3061.00000    1.44100   17.85100   69.18300
 3927.20000 3128.00000    1.48100   16.81600   74.10300
 3927.30000 3323.00000    1.64800   18.63000   75.03800
 3927.40000 3389.00000    1.97100   19.53200   76.56300
 3927.50000 3341.00000    1.48100   18.88500   72.25800
 3927.60000 3278.00000    1.62800   17.46300   79.94500
 3927.70000 3718.00000    1.59900   17.46500   77.19100
 3927.80000 3856.00000    1.63800   16.94800   75.03800
 3927.90000 3532.00000    1.85300   17.20400   72.56600
 3928.00000 3278.00000    1.49000   20.30800   83.02000
 3928.10000 3207.00000    1.40200   17.85100   67.95300
 3928.20000 3462.00000    1.53000   18.37100   73.19300
 3928.30000 3611.00000    1.63800   17.46500   71.65500
 3928.40000 3448.00000    1.57900   18.62700   68.56800
 3928.50000 3394.00000    1.59800   16.55700   75.94800
 3928.60000 3343.00000    1.54900   19.01500   70.41300
 3928.70000 3310.00000    1.61800   19.66200   78.10000
 3928.80000 3279.00000    1.83400   19.14700   76.88300
 3928.90000 3299.00000    1.55900   18.23900   78.10000
 3929.00000 3135.00000    1.54900   16.29800   75.33300
 3929.10000 3143.00000    1.63800   15.65200   69.79800
 3929.20000 3431.00000    1.65700   17.20700   79.03600
 3929.30000 3847.00000    1.93200   19.27700   74.73100
 3929.40000 3840.00000    1.65700   20.57000   75.65300
 3929.50000 3649.00000    1.61800   19.66200   76.87000
 3929.60000 3418.00000    1.70700   17.33600   80.57400
 3929.70000 3325.00000    1.61800   19.53200   68.87600
 3929.80000 3260.00000    1.64700   17.59200   67.95300
 3929.90000 3258.00000    1.73600   17.59200   63.95600
 3930.00000 3240.00000    1.63800   21.08400   72.87300
 3930.10000 3352.00000    1.53000   19.79100   74.71800
 3930.20000 3321.00000    1.53000   17.07700   74.73100
 3930.30000 3303.00000    1.71600   16.81900   66.73500
 3930.40000 3410.00000    1.52000   21.99400   71.65500
 3930.50000 3334.00000    1.33400   18.63000   73.80800
 3930.60000 3283.00000    1.49000   17.98000   76.87000
 3930.70000 3616.00000    1.63800   19.14700   75.03800
 3930.80000 3680.00000    1.78500   19.27700   67.35000
 3930.90000 3619.00000    1.71600   18.11200   77.19100
 3931.00000 3683.00000    1.76500   19.92400   73.19300
 3931.10000 3710.00000    1.79500   19.53500   75.65300
 3931.20000 3818.00000    1.68700   21.34700   69.19500
 3931.30000 3832.00000    1.90300   17.46500   70.11800
 3931.40000 3874.00000    1.65700   18.24200   69.81000
 3931.50000 3637.00000    1.70700   16.04200   73.50000
 3931.60000 3830.00000    1.69700   20.70000   76.26800
 3931.70000 3776.00000    1.79500   19.53500   61.19900
 3931.80000 3817.00000    1.41200   18.24200   77.80600
 3931.90000 3623.00000    1.70700   21.34700   73.19300
 3932.00000 3485.00000    1.69700   16.81900   72.27000
 3932.10000 3448.00000    1.35300   22.51100   66.12000
 3932.20000 3584.00000    1.59900   18.37100   61.50700
 3932.30000 3693.00000    1.69700   20.44100   63.04400
 3932.40000 3870.00000    1.77500   20.83300   68.28400
 3932.50000 3758.00000    1.68700   22.64400   63.05500
 3932.60000 3827.00000    1.67700   20.83300   63.36200
 3932.70000 3434.00000    1.69700   20.57400   68.89900
 3932.80000 3101.00000    1.56900   16.30100   59.35400
 3932.90000 3222.00000    1.76600   19.92700   57.82600
 3933.00000 3117.00000    1.58900   23.93400   64.88900
 3933.10000 3335.00000    1.71600   23.28700   61.50700
 3933.20000 3458.00000    1.79500   23.80500   55.97100
 3933.30000 3655.00000    1.87300   22.77000   53.81800
 3933.40000 3774.00000    1.54000   26.39700   57.82600
 3933.50000 3589.00000    1.71700   21.73800   58.74900
 3933.60000 3486.00000    1.70700   22.12700   63.05500
 3933.70000 3500.00000    1.83400   23.54600   57.20100
 3933.80000 3490.00000    1.56000   20.96200   63.05500
 3933.90000 3330.00000    1.50100   19.53900   64.28500
 3934.00000 3012.00000    1.51000   19.79400   55.97100
 3934.10000 3115.00000    1.79500   19.27700   56.89400
 3934.20000 3030.00000    1.55900   20.05300   60.58400
 3934.30000 2900.00000    1.60800   20.18200   63.65900
 3934.40000 2714.00000    1.47100   17.98300   55.97100
 3934.50000 2651.00000    1.27500   18.88900   59.96900
 3935.50000 3097.00000    1.57900   19.27700   61.50700
 3935.60000 3288.00000    1.36300   18.63300   68.89900
 3935.70000 3053.00000    1.61800   18.37100   56.27900
 3935.80000 3229.00000    1.36300   21.60500   62.73700
 3935.90000 3279.00000    1.56900   18.63000   60.89200
 3936.00000 3369.00000    1.60800   20.31200   55.35600
 3936.10000 3308.00000    1.51000   18.75900   65.19700
 3936.20000 3036.00000    1.65800   19.79800   63.36200
 3936.30000 2906.00000    1.53000   16.81900   55.35600
 3936.40000 2919.00000    1.44100   17.72100   63.64900
 3936.50000 2987.00000    1.61800   17.85400   59.96900
 3936.60000 2860.00000    1.36300   19.27700   67.35000
 3936.70000 2778.00000    1.32400   18.75900   58.73900
 3936.80000 2845.00000    1.27500   16.04200   65.81200
 3936.90000 2916.00000    1.65700   18.50000   53.81800
 3937.00000 3272.00000    1.48100   19.53500   65.81200
 3937.10000 3607.00000    1.74600   21.35000   65.51600
 3937.20000 3861.00000    1.78500   21.35000   62.74700
 3937.30000 4277.00000    1.78500   22.38500   63.67000
 3937.40000 4271.00000    1.96200   25.10300   66.13100
 3937.50000 4143.00000    1.67700   23.16200   59.97900
 3937.60000 3853.00000    1.83400   20.83300   66.13100
 3937.70000 3267.00000    1.49100   17.33600   62.73700
 3937.80000 3005.00000    1.61800   18.50000   55.97100
 3937.90000 2962.00000    1.37300   16.94800   68.27200
 3938.00000 2945.00000    1.49100   18.50000   69.19500
 3938.10000 3009.00000    1.76500   17.85400   57.50900
 3938.20000 3139.00000    1.57900   19.27700   56.89400
 3938.30000 3222.00000    1.90300   18.75900   61.19900
 3938.40000 3337.00000    1.45200   19.14700   72.57800
 3938.50000 3090.00000    1.48100   18.11200   60.58400
 3938.60000 3182.00000    1.58900   19.66500   59.96900
 3938.70000 3128.00000    1.54000   22.38200   58.12400
 3938.80000 3013.00000    1.52000   19.53500   59.35400
 3938.90000 3031.00000    1.62800   20.05300   67.65700
 3939.00000 3127.00000    1.84400   21.60500   62.73700
 3939.10000 3091.00000    1.58900   20.05300   64.88900
 3939.20000 3033.00000    1.79500   19.40600   62.73700
 3939.30000 3107.00000    1.42200   19.92400   56.58600
 3939.40000 2994.00000    1.44200   19.27700   56.27900
 3939.50000 3053.00000    1.52000   17.72400   51.05000
 3939.60000 2975.00000    1.57900   20.95900   60.89200
