~Version ---------------------------------------------------
VERS.   2.0 : CWLS log ASCII Standard -VERSION 2.0
WRAP.    NO : One line per depth step
DLM . SPACE : Column Data Section Delimiter
~Well ------------------------------------------------------
STRT.m    3837.00000 : START DEPTH
STOP.m    4016.70000 : STOP DEPTH
STEP.m       0.10000 : STEP
NULL.       -9999.25 : NULL VALUE
COMP.                : COMPANY
WELL. Volve 15_9-19A : WELL
FLD .                : FIELD
LOC .                : LOCATION
PROV.                : PROVINCE
CNTY.                : COUNTY
STAT.                : STATE
CTRY.                : COUNTRY
SRVC.                : SERVICE COMPANY
DATE.                : DATE
UWI .                : UNIQUE WELL ID
API .                : API NUMBER
~Curve Information -----------------------------------------
DEPTH.m   [3837.  3837.1 3837.2 ... 4016.5 4016.6 4016.7] : DEPTH
GR   .c/min           [3047 3343 3174 ... 3107 2945 2783] : GR
K    .%         [1.697 1.462 1.618 ... 1.442 1.53  1.618] : K
U    .ppm [17.854 17.727 19.406 ... 19.018 21.735 24.452] : U
TH   .ppm [62.429 69.207 61.814 ... 67.965 64.274 60.583] : TH
~Params ----------------------------------------------------
~Other -----------------------------------------------------
~ASCII -----------------------------------------------------
# ...
 3881.60000 3193.00000    1.69700   20.70000   59.96900
 3881.70000 3240.00000    1.66700   22.77000   56.58600
 3881.80000 3319.00000    1.65700   22.64000   66.12000
 3881.90000 3272.00000    1.83400   20.31200   60.89200
 3882.00000 3346.00000    1.74600   20.82900   65.19700
 3882.10000 3668.00000    1.46100   20.44100   62.12200
 3882.20000 3598.00000    1.65800   20.83300   64.59300
 3882.30000 3629.00000    1.97200   24.06800   67.05300
 3882.40000 3570.00000    1.65800   21.73800   59.67100
 3882.50000 3731.00000    1.81400   27.94500   62.12200
 3882.60000 3797.00000    1.53000   24.97300   55.05800
 3882.70000 3640.00000    1.47100   22.51500   58.44100
 3882.80000 3701.00000    1.84400   25.75000   65.82300
 3882.90000 3809.00000    1.76600   23.55000   50.75100
 3883.00000 3917.00000    1.90300   24.32600   69.51400
 3883.10000 3783.00000    1.68700   25.49100   59.36400
 3883.20000 3564.00000    1.80500   21.48000   58.74900
 3883.30000 3532.00000    1.78500   23.80500   64.27400
 3883.40000 3312.00000    1.53000   22.51100   65.19700
 3883.50000 3333.00000    1.65700   20.95900   62.12200
 3883.60000 3316.00000    1.56900   22.25200   62.12200
 3883.70000 3293.00000    1.78500   19.92700   63.67000
 3883.80000 3293.00000    1.38300   19.27700   63.04400
 3883.90000 3105.00000    1.53000   17.46500   57.81600
 3884.00000 3182.00000    1.60800   21.21700   58.43100
 3884.10000 3201.00000    1.63800   20.44100   59.04600
 3884.20000 3282.00000    1.49100   19.02100   65.20800
 3884.30000 3364.00000    1.63800   17.72400   69.19500
 3884.40000 3234.00000    1.46100   20.05300   53.51100
 3884.50000 3334.00000    1.58900   21.60500   60.27600
 3884.60000 3365.00000    1.60800   21.86400   67.65700
 3884.70000 3396.00000    1.71600   20.18200   60.89200
 3884.80000 3280.00000    1.52000   19.14700   62.12200
 3884.90000 3108.00000    1.31400   20.82900   51.05000
 3885.00000 3080.00000    1.54000   21.99400   64.27400
 3885.10000 3270.00000    1.44200   20.18200   63.35200
 3885.20000 3383.00000    1.60800   22.64000   65.19700
 3885.30000 2956.00000    1.55900   20.44100   53.51100
 3885.40000 3009.00000    1.61800   21.60500   60.27600
 3885.50000 2824.00000    1.38300   19.27700   59.35400
 3885.60000 2819.00000    1.55900   18.75900   60.89200
 3885.70000 2915.00000    1.55900   21.99400   65.19700
 3885.80000 2882.00000    1.35300   20.44100   57.50900
 3885.90000 2853.00000    1.49100   16.17200   57.81600
 3886.00000 2889.00000    1.66700   20.57000   64.88900
 3886.10000 3009.00000    1.62800   22.64000   59.66100
 3886.20000 2892.00000    1.67700   19.66500   60.27600
 3886.30000 2853.00000    1.34400   16.04200   55.66300
 3886.40000 2911.00000    1.31400   20.31200   60.27600
 3886.50000 2969.00000    1.61800   18.75900   67.04200
 3886.60000 3011.00000    1.55900   21.60500   61.19900
 3886.70000 3165.00000    1.76500   19.40600   63.65900
 3886.80000 2982.00000    1.64800   18.88900   52.58800
 3886.90000 2972.00000    1.49100   20.18200   57.50900
 3887.00000 3030.00000    1.57900   19.92400   58.12400
 3887.10000 3110.00000    1.55000   21.34700   59.66100
 3887.20000 3126.00000    1.65700   22.89900   64.88900
 3887.30000 3063.00000    1.62800   22.25200   59.66100
 3887.40000 3106.00000    1.71600   18.11200   63.65900
 3887.50000 3211.00000    1.60800   24.45200   62.73700
 3887.60000 3105.00000    1.68700   23.02900   59.66100
 3887.70000 3033.00000    1.69700   19.66500   63.96700
 3887.80000 3019.00000    1.60800   21.08800   56.58600
 3887.90000 3013.00000    1.71600   22.51100   57.50900
 3888.00000 3081.00000    1.65700   20.31200   66.73500
 3888.10000 3095.00000    1.61800   22.51100   57.50900
 3888.20000 3070.00000    1.55900   23.41700   57.50900
 3888.30000 3116.00000    1.50100   21.60500   54.12600
 3888.40000 3223.00000    1.52000   22.25200   56.27900
 3888.50000 3175.00000    1.56900   20.57000   61.81400
 3888.60000 3228.00000    1.70700   23.42100   54.13500
 3888.70000 3193.00000    1.83400   22.12300   64.27400
 3888.80000 3219.00000    1.73600   25.74500   59.35400
 3888.90000 3195.00000    1.73600   21.86400   54.43300
 3889.00000 3101.00000    1.59900   20.82900   57.81600
 3889.10000 3164.00000    1.65700   23.93400   60.27600
 3889.20000 3151.00000    1.53000   20.95900   60.89200
 3889.30000 3100.00000    1.36300   23.15800   62.12200
 3889.40000 3128.00000    1.57900   23.15800   55.04800
 3889.50000 3119.00000    1.65700   22.89900   57.81600
 3889.60000 3156.00000    1.42200   21.73500   64.58200
 3889.70000 3134.00000    1.60800   22.12300   60.58400
 3889.80000 3083.00000    1.46100   21.86400   57.81600
 3889.90000 3071.00000    1.64800   21.08800   60.27600
 3890.00000 3055.00000    1.64800   19.14700   65.50500
 3890.10000 3296.00000    1.60800   23.28700   60.89200
 3890.20000 3149.00000    1.67700   24.84000   57.50900
 3890.30000 3251.00000    1.78500   23.16200   55.36500
 3890.40000 3169.00000    1.32400   23.41700   62.42900
 3890.50000 3258.00000    1.58900   24.19300   63.96700
 3890.60000 3176.00000    1.87300   20.82900   60.58400
 3890.70000 3283.00000    1.61800   23.67500   61.50700
 3890.80000 3541.00000    1.76500   23.15800   68.27200
 3890.90000 3973.00000    1.92300   26.52600   64.28500
 3891.00000 4113.00000    1.98100   22.38500   68.59100
 3891.10000 4000.00000    2.00100   24.32600   53.82700
 3891.20000 3806.00000    1.78500   27.30200   55.36500
 3891.30000 3721.00000    1.91300   23.03200   58.44100
 3891.40000 3730.00000    1.71600   25.74500   62.12200
 3891.50000 3621.00000    1.73600   24.96900   58.43100
 3891.60000 3454.00000    1.67700   22.77000   57.81600
 3891.70000 3288.00000    1.57900   21.21700   61.50700
 3891.80000 3331.00000    1.63800   22.38200   61.50700
 3891.90000 3264.00000    1.68700   25.87500   63.04400
 3892.00000 3025.00000    1.72600   19.14700   56.89400
 3892.10000 3103.00000    1.67700   20.31500   47.67600
 3892.20000 3062.00000    1.59900   22.89900   58.73900
 3892.30000 2986.00000    1.63800   19.01800   54.43300
 3892.40000 3060.00000    1.71600   22.89900   51.66600
 3892.50000 3095.00000    1.55900   24.96900   63.35200
 3892.60000 3269.00000    1.55900   22.89900   65.81200
 3892.70000 3275.00000    1.69700   21.86800   61.51700
 3892.80000 3257.00000    1.60800   23.28700   59.66100
 3892.90000 3078.00000    1.31400   21.60500   67.04200
 3893.00000 2966.00000    1.55900   21.08800   57.50900
 3893.10000 3012.00000    1.39300   19.53500   59.35400
 3893.20000 3034.00000    1.67700   21.60500   60.58400
 3893.30000 3228.00000    1.65700   20.82900   60.89200
 3893.40000 3332.00000    1.84400   23.15800   66.42700
 3893.50000 3500.00000    1.82500   23.03200   65.20800
 3893.60000 3666.00000    1.74600   24.58100   59.04600
 3893.70000 3900.00000    1.67700   24.71500   63.36200
 3893.80000 4033.00000    1.98100   25.62000   61.82400
 3893.90000 3827.00000    1.89300   23.03200   61.82400
 3894.00000 3763.00000    1.93200   24.45600   69.82200
 3894.10000 3773.00000    1.68700   30.14900   56.90300
 3894.20000 3603.00000    1.55900   25.61600   56.89400
 3894.30000 3444.00000    1.77500   23.54600   61.81400
 3894.40000 3352.00000    1.78500   23.16200   63.36200
 3894.50000 3234.00000    1.61800   24.19300   53.81800
 3894.60000 3297.00000    1.76500   23.93400   50.43500
 3894.70000 3222.00000    1.45200   23.28700   59.66100
 3894.80000 3277.00000    1.77500   24.58100   60.89200
 3894.90000 3152.00000    1.57900   22.51500   59.97900
 3895.00000 3269.00000    1.66800   24.58500   61.51700
 3895.10000 3155.00000    1.50100   24.45200   57.20100
 3895.20000 3295.00000    1.77500   25.61600   59.96900
 3895.30000 3372.00000    1.48100   22.64400   67.97600
 3895.40000 3221.00000    1.52000   23.54600   60.58400
 3895.50000 3234.00000    1.55000   25.74500   59.04600
 3895.60000 3255.00000    1.68700   22.90300   58.44100
 3895.70000 3324.00000    1.63800   25.35700   64.58200
 3895.80000 3277.00000    1.65700   22.12300   61.81400
