~Version ---------------------------------------------------
VERS.   2.0 : CWLS log ASCII Standard -VERSION 2.0
WRAP.    NO : One line per depth step
DLM . SPACE : Column Data Section Delimiter
~Well ------------------------------------------------------
STRT.m    3837.00000 : START DEPTH
STOP.m    4016.70000 : STOP DEPTH
STEP.m       0.10000 : STEP
NULL.       -9999.25 : NULL VALUE
COMP.                : COMPANY
WELL. Volve 15_9-19A : WELL
FLD .                : FIELD
LOC .                : LOCATION
PROV.                : PROVINCE
CNTY.                : COUNTY
STAT.                : STATE
CTRY.                : COUNTRY
SRVC.                : SERVICE COMPANY
DATE.                : DATE
UWI .                : UNIQUE WELL ID
API .                : API NUMBER
~Curve Information -----------------------------------------
DEPTH.m   [3837.  3837.1 3837.2 ... 4016.5 4016.6 4016.7] : DEPTH
GR   .c/min           [3047 3343 3174 ... 3107 2945 2783] : GR
K    .%         [1.697 1.462 1.618 ... 1.442 1.53  1.618] : K
U    .ppm [17.854 17.727 19.406 ... 19.018 21.735 24.452] : U
TH   .ppm [62.429 69.207 61.814 ... 67.965 64.274 60.583] : TH
~Params ----------------------------------------------------
~Other -----------------------------------------------------
~ASCII -----------------------------------------------------
# ...
 3968.30000 3636.00000    1.92300   21.60900   61.51700
 3968.40000 3315.00000    1.68700   22.51100   64.58200
 3968.50000 3542.00000    1.87400   21.09100   57.51800
 3968.60000 3512.00000    1.74600   22.12700   60.28700
 3968.70000 3342.00000    1.63800   20.82900   61.50700
 3968.80000 3341.00000    1.55900   19.53500   68.58000
 3968.90000 3322.00000    1.82400   22.89900   63.65900
 3969.00000 3227.00000    1.68700   23.67500   60.58400
 3969.10000 3353.00000    1.51000   21.34700   66.42700
 3969.20000 3385.00000    1.61800   21.21700   63.65900
 3969.30000 3230.00000    1.51000   20.05300   67.35000
 3969.40000 3305.00000    1.76500   20.44100   60.89200
 3969.50000 3297.00000    1.77500   20.05300   60.27600
 3969.60000 3304.00000    1.49100   21.99400   62.42900
 3969.70000 3169.00000    1.55900   21.21700   61.19900
 3969.80000 3152.00000    1.67700   17.46500   64.27400
 3969.90000 3157.00000    1.71600   20.57000   62.42900
 3970.00000 3006.00000    1.65700   20.18200   64.27400
 3970.10000 3028.00000    1.64800   18.11200   70.11800
 3970.20000 3157.00000    1.76500   19.27700   66.12000
 3970.30000 3178.00000    1.66700   22.12300   71.04000
 3970.40000 3190.00000    1.59900   19.01800   54.74100
 3970.50000 3107.00000    1.60800   22.38200   57.20100
 3970.60000 3277.00000    1.36300   21.99400   55.04800
 3970.70000 3289.00000    1.67700   22.77400   65.20800
 3970.80000 3267.00000    1.77500   24.45200   57.50900
 3970.90000 3381.00000    1.48100   22.64000   63.04400
 3971.00000 3642.00000    1.88300   21.86800   63.67000
 3971.10000 3513.00000    1.59900   23.29100   55.67300
 3971.20000 3466.00000    1.61900   18.24500   58.74900
 3971.30000 3450.00000    1.73600   20.95900   63.35200
 3971.40000 3535.00000    1.76600   19.02100   66.43800
 3971.50000 3364.00000    1.49100   25.22800   56.27900
 3971.60000 3611.00000    1.66700   23.67500   55.35600
 3971.70000 3891.00000    1.93200   25.23200   54.44200
 3971.80000 3964.00000    1.79500   26.52600   59.05600
 3971.90000 3494.00000    1.64800   24.45600   63.67000
 3972.00000 3239.00000    1.65700   23.41700   59.66100
 3972.10000 3671.00000    1.85400   21.48000   55.36500
 3972.20000 3810.00000    1.62800   22.38200   53.81800
 3972.30000 3725.00000    2.03000   23.16200   51.36700
 3972.40000 3796.00000    1.80500   28.59600   65.51600
 3972.50000 3734.00000    1.69700   21.60900   53.52000
 3972.60000 3612.00000    1.74600   24.58500   60.28700
 3972.70000 3683.00000    1.92300   21.73800   57.82600
 3972.80000 3833.00000    2.12900   25.23200   65.20800
 3972.90000 3699.00000    1.59900   25.75000   71.66700
 3973.00000 3309.00000    1.67700   19.01800   67.65700
 3973.10000 3233.00000    1.70700   21.86400   51.97300
 3973.20000 3489.00000    1.69700   21.99700   56.28800
 3973.30000 3565.00000    1.74600   20.70000   65.50500
 3973.40000 3597.00000    1.69700   22.25600   62.13200
 3973.50000 3730.00000    1.96200   24.32600   65.51600
 3973.60000 3975.00000    1.83400   24.71500   60.90200
 3973.70000 3879.00000    1.83400   23.29100   59.67100
 3973.80000 3709.00000    1.85400   22.51500   59.36400
 3973.90000 3548.00000    1.65700   22.77000   60.27600
 3974.00000 3232.00000    1.67700   20.57000   67.04200
 3974.10000 3237.00000    1.80500   19.01800   63.35200
 3974.20000 3353.00000    1.48100   23.15800   65.50500
 3974.30000 3342.00000    1.77500   20.83300   64.28500
 3974.40000 3421.00000    1.81400   20.95900   55.97100
 3974.50000 3309.00000    1.77500   24.96900   63.04400
 3974.60000 3227.00000    1.68700   22.25200   65.50500
 3974.70000 3066.00000    1.38300   21.34700   57.50900
 3974.80000 3159.00000    1.71600   19.40600   63.35200
 3974.90000 3024.00000    1.42200   19.92400   63.35200
 3975.00000 3243.00000    1.60900   19.40900   57.82600
 3975.10000 3302.00000    1.70700   20.44100   61.19900
 3975.20000 3336.00000    1.79500   19.27700   63.65900
 3975.30000 3365.00000    1.82400   20.44100   58.12400
 3975.40000 3287.00000    1.44200   19.92400   59.96900
 3975.50000 3193.00000    1.50100   19.40900   62.13200
 3975.60000 3200.00000    1.47100   21.08800   59.04600
 3975.70000 3445.00000    1.72600   21.60500   65.19700
 3975.80000 3931.00000    1.79500   22.25600   58.13300
 3975.90000 3988.00000    1.86400   27.30200   62.13200
 3976.00000 4010.00000    1.91300   23.93800   70.12900
 3976.10000 4000.00000    1.93200   30.66700   60.28700
 3976.20000 4032.00000    2.00100   27.30200   56.90300
 3976.30000 4088.00000    1.82500   22.90300   61.20900
 3976.40000 4281.00000    2.02100   28.46700   65.20800
 3976.50000 4195.00000    1.87400   26.52600   62.44000
 3976.60000 4231.00000    1.92300   25.36200   68.28400
 3976.70000 4275.00000    1.79500   22.51500   64.90000
 3976.80000 4444.00000    2.09900   27.30200   61.51700
 3976.90000 4320.00000    2.17800   28.33800   55.36500
 3977.00000 4001.00000    1.92300   21.60900   59.67100
 3977.10000 3634.00000    1.60900   18.63300   63.97800
 3977.20000 3313.00000    1.76600   21.73800   60.59400
 3977.30000 3126.00000    1.62800   20.05300   54.12600
 3977.40000 3201.00000    1.66700   19.27700   64.27400
 3977.50000 3228.00000    1.58900   18.63000   59.04600
 3977.60000 3041.00000    1.57900   18.24200   56.27900
 3977.70000 3200.00000    1.71600   22.12300   60.58400
 3977.80000 3199.00000    1.60800   19.01800   59.96900
 3977.90000 3215.00000    1.67700   22.38200   62.73700
 3978.00000 2916.00000    1.74600   21.47600   53.51100
 3978.10000 3505.00000    1.63800   28.07900   55.98000
 3978.20000 3561.00000    1.62800   26.13800   54.13500
 3978.30000 3646.00000    1.67700   24.58500   54.75000
 3978.40000 3739.00000    1.72600   25.62000   59.97900
 3978.50000 3613.00000    1.78500   23.16200   59.36400
 3978.60000 3554.00000    1.73600   21.99400   68.88700
 3978.70000 3347.00000    1.49100   22.51100   61.81400
 3978.80000 3364.00000    1.93200   21.08800   64.27400
 3978.90000 3261.00000    1.54000   18.11500   56.59600
 3979.00000 3392.00000    1.95200   23.67500   68.58000
 3979.10000 3463.00000    1.80500   20.05600   68.28400
 3979.20000 3657.00000    1.88300   22.25200   58.43100
 3979.30000 3512.00000    1.68700   21.99400   60.27600
 3979.40000 3535.00000    1.71600   23.41700   63.96700
 3979.50000 3371.00000    1.89300   20.70000   64.88900
 3979.60000 3270.00000    1.69700   20.18200   56.27900
 3979.70000 3432.00000    1.78500   22.51100   61.50700
 3979.80000 3564.00000    1.51000   22.77000   60.27600
 3979.90000 3361.00000    1.73600   21.60500   59.04600
 3980.00000 3327.00000    1.69700   21.08800   66.12000
 3980.10000 3260.00000    1.86300   18.75900   63.04400
 3980.20000 3473.00000    1.70700   21.73500   74.11500
 3980.30000 3116.00000    1.35300   17.72400   58.43100
 3980.40000 3189.00000    1.74600   22.64000   58.73900
 3980.50000 3012.00000    1.70700   18.50000   63.04400
 3980.60000 3029.00000    1.63800   18.63000   65.81200
 3980.70000 3485.00000    1.94200   20.05300   67.35000
 3980.80000 3710.00000    1.87300   21.86400   59.04600
 3980.90000 3936.00000    1.68700   21.86800   67.36100
 3981.00000 3629.00000    1.54000   23.93800   65.51600
 3981.10000 3554.00000    1.70700   23.67900   65.51600
 3981.20000 3390.00000    1.73600   20.44100   62.12200
 3981.30000 3358.00000    1.95200   23.41700   65.19700
 3981.40000 3390.00000    1.74600   21.48000   53.82700
 3981.50000 3505.00000    1.78500   21.86800   64.28500
 3981.60000 3381.00000    1.95200   20.05300   59.04600
 3981.70000 3240.00000    1.66700   17.72400   65.19700
 3981.80000 3316.00000    1.65700   20.18200   64.88900
 3981.90000 3242.00000    1.66700   22.25200   60.58400
 3982.00000 3265.00000    1.48100   21.47600   61.81400
 3982.10000 3325.00000    1.63800   18.24500   59.97900
 3982.20000 3435.00000    1.86300   23.54600   59.35400
 3982.30000 3315.00000    1.63800   20.70000   60.27600
 3982.40000 3331.00000    1.78500   19.66500   62.42900
 3982.50000 3232.00000    1.55900   23.02900   52.89600
