~Version ---------------------------------------------------
VERS.   2.0 : CWLS log ASCII Standard -VERSION 2.0
WRAP.    NO : One line per depth step
DLM . SPACE : Column Data Section Delimiter
~Well ------------------------------------------------------
STRT.m    3837.00000 : START DEPTH
STOP.m    4016.70000 : STOP DEPTH
STEP.m       0.10000 : STEP
NULL.       -9999.25 : NULL VALUE
COMP.                : COMPANY
WELL. Volve 15_9-19A : WELL
FLD .                : FIELD
LOC .                : LOCATION
PROV.                : PROVINCE
CNTY.                : COUNTY
STAT.                : STATE
CTRY.                : COUNTRY
SRVC.                : SERVICE COMPANY
DATE.                : DATE
UWI .                : UNIQUE WELL ID
API .                : API NUMBER
~Curve Information -----------------------------------------
DEPTH.m   [3837.  3837.1 3837.2 ... 4016.5 4016.6 4016.7] : DEPTH
GR   .c/min           [3047 3343 3174 ... 3107 2945 2783] : GR
K    .%         [1.697 1.462 1.618 ... 1.442 1.53  1.618] : K
U    .ppm [17.854 17.727 19.406 ... 19.018 21.735 24.452] : U
TH   .ppm [62.429 69.207 61.814 ... 67.965 64.274 60.583] : TH
~Params ----------------------------------------------------
~Other -----------------------------------------------------
~ASCII -----------------------------------------------------
# ...
 3997.00000 3227.00000    1.58900   23.80500   71.04000
 3997.10000 3416.00000    1.48100   23.80900   64.28500
 3997.20000 3766.00000    1.87400   24.45600   63.67000
 3997.30000 3486.00000    1.70700   22.12700   56.59600
 3997.40000 3514.00000    1.71700   22.51500   56.90300
 3997.50000 3600.00000    1.78500   23.93800   52.59700
 3997.60000 3805.00000    1.82500   23.16200   67.05300
 3997.70000 3805.00000    1.89300   22.77400   64.90000
 3997.80000 3791.00000    1.79500   22.51500   55.67300
 3997.90000 3768.00000    1.72600   23.42100   55.05800
 3998.00000 3930.00000    1.70700   21.60900   67.97600
 3998.10000 3969.00000    1.93200   23.93800   57.51800
 3998.20000 3619.00000    1.78500   22.90300   64.59300
 3998.30000 3434.00000    1.83400   21.48000   71.36000
 3998.40000 3679.00000    1.69700   21.47600   68.58000
 3998.50000 3668.00000    1.74600   22.38500   64.59300
 3998.60000 3266.00000    1.70700   21.34700   73.19300
 3998.70000 3100.00000    1.73600   22.64000   61.50700
 3998.80000 2941.00000    1.56000   16.17400   64.59300
 3998.90000 2936.00000    1.59900   19.14700   63.04400
 3999.00000 2975.00000    1.70700   18.37100   58.12400
 3999.10000 3044.00000    1.58900   18.88900   62.42900
 3999.20000 3064.00000    1.40200   18.11200   64.27400
 3999.30000 3050.00000    1.52000   19.14700   62.73700
 3999.40000 3034.00000    1.42200   19.66500   58.73900
 3999.50000 3124.00000    1.66700   19.79400   66.73500
 3999.60000 3055.00000    1.51000   19.27700   60.89200
 3999.70000 3017.00000    1.55900   21.60500   60.89200
 3999.80000 3018.00000    1.48100   19.14700   59.04600
 3999.90000 3050.00000    1.61800   21.60500   64.88900
 4000.00000 3060.00000    1.68700   18.11200   63.65900
 4000.10000 3383.00000    1.79500   23.67500   65.19700
 4000.20000 3519.00000    1.97100   23.80500   58.73900
 4000.30000 3397.00000    1.87400   22.51500   62.13200
 4000.40000 3436.00000    1.92200   21.73500   65.19700
 4000.50000 3260.00000    1.72600   21.47600   62.73700
 4000.60000 3113.00000    1.61800   20.57000   60.58400
 4000.70000 3066.00000    1.63800   16.30100   65.19700
 4000.80000 3344.00000    1.42200   20.18600   62.74700
 4000.90000 3440.00000    1.64800   22.12300   60.58400
 4001.00000 3652.00000    1.67700   22.51500   59.05600
 4001.10000 3664.00000    1.56000   25.62000   60.90200
 4001.20000 3451.00000    1.54000   19.40600   58.73900
 4001.30000 3648.00000    1.70700   24.45600   60.28700
 4001.40000 3735.00000    1.69700   23.29100   63.97800
 4001.50000 3769.00000    1.73600   25.87900   58.74900
 4001.60000 3578.00000    1.60900   24.06800   60.90200
 4001.70000 3316.00000    1.69700   20.18200   61.19900
 4001.80000 3042.00000    1.49100   19.79400   62.12200
 4001.90000 3079.00000    1.78500   21.73500   62.42900
 4002.00000 3040.00000    1.53000   21.47600   61.81400
 4002.10000 3150.00000    1.56900   21.99400   56.89400
 4002.20000 3033.00000    1.65700   20.57000   60.58400
 4002.30000 3003.00000    1.61800   18.50000   61.81400
 4002.40000 3051.00000    1.57900   21.47600   62.73700
 4002.50000 2922.00000    1.56900   15.65400   62.73700
 4002.60000 3057.00000    1.51000   21.08800   60.58400
 4002.70000 3116.00000    1.79500   21.60500   60.58400
 4002.80000 3175.00000    1.52000   21.60500   55.04800
 4002.90000 3112.00000    1.55900   18.37100   55.66300
 4003.00000 3058.00000    1.35300   17.72400   67.35000
 4003.10000 3072.00000    1.59900   21.08800   67.04200
 4003.20000 3135.00000    1.60800   20.18200   62.12200
 4003.30000 3125.00000    1.46100   21.08800   63.65900
 4003.40000 3070.00000    1.59900   18.75900   56.27900
 4003.50000 3030.00000    1.80500   19.14700   58.43100
 4003.60000 2991.00000    1.29500   16.81900   61.19900
 4003.70000 3087.00000    1.64800   22.51100   59.35400
 4003.80000 3125.00000    1.50100   21.99400   67.65700
 4003.90000 3017.00000    1.65700   18.75900   55.97100
 4004.00000 2994.00000    1.51000   19.92400   67.35000
 4004.10000 2966.00000    1.45200   19.27700   63.04400
 4004.20000 2949.00000    1.75600   21.86400   56.27900
 4004.30000 3076.00000    1.41200   18.37100   61.19900
 4004.40000 2955.00000    1.36300   19.14700   60.27600
 4004.50000 3008.00000    1.39300   19.40600   67.04200
 4004.60000 3078.00000    1.88300   20.57000   59.66100
 4004.70000 3103.00000    1.48100   19.53500   55.97100
 4004.80000 2988.00000    1.45200   17.98300   63.04400
 4004.90000 2848.00000    1.54000   20.70000   57.20100
 4005.00000 2988.00000    1.30400   21.34700   57.81600
 4005.10000 2960.00000    1.76500   19.53500   56.89400
 4005.20000 2951.00000    1.57900   20.31200   64.27400
 4005.30000 3111.00000    1.51000   19.66500   59.96900
 4005.40000 3102.00000    1.58900   19.40600   63.35200
 4005.50000 3008.00000    1.28500   18.75900   69.19500
 4005.60000 3077.00000    1.72600   20.70000   57.20100
 4005.70000 3086.00000    1.61800   20.82900   59.35400
 4005.80000 2942.00000    1.62800   17.33600   56.89400
 4005.90000 3022.00000    1.57900   21.47600   67.96500
 4006.00000 2934.00000    1.36300   21.60500   59.66100
 4006.10000 2960.00000    1.75600   19.79400   62.73700
 4006.20000 2915.00000    1.61800   21.08800   63.04400
 4006.30000 3019.00000    1.69700   23.02900   60.89200
 4006.40000 2927.00000    1.50100   21.21700   60.27600
 4006.50000 3035.00000    1.60800   22.12300   58.12400
 4006.60000 2993.00000    1.62800   24.71000   60.89200
 4006.70000 3080.00000    1.79500   21.21700   57.20100
 4006.80000 2914.00000    1.45200   16.94800   63.04400
 4006.90000 2991.00000    1.58900   17.46500   62.73700
 4007.00000 3085.00000    1.38300   17.33600   58.73900
 4007.10000 3047.00000    1.48100   22.77000   60.58400
 4007.20000 3144.00000    1.68700   21.34700   65.81200
 4007.30000 3311.00000    1.71600   19.53500   69.81000
 4007.40000 3692.00000    1.70700   22.77400   68.89900
 4007.50000 3682.00000    1.90300   19.28000   62.44000
 4007.60000 3363.00000    1.92200   20.82900   70.11800
 4007.70000 3368.00000    1.79500   21.99400   65.19700
 4007.80000 3324.00000    1.54000   18.24200   59.96900
 4007.90000 3157.00000    1.73600   19.53500   62.12200
 4008.00000 3037.00000    1.45200   16.56000   65.19700
 4008.10000 3137.00000    1.47100   20.18200   64.58200
 4008.20000 3266.00000    1.68700   18.88900   62.73700
 4008.30000 3059.00000    1.60800   19.40600   59.96900
 4008.40000 3007.00000    1.64800   20.95900   62.42900
 4008.50000 3029.00000    1.68700   17.72400   56.27900
 4008.60000 3051.00000    1.75600   20.31200   66.42700
 4008.70000 2950.00000    1.47100   19.14700   59.66100
 4008.80000 3032.00000    1.42200   21.09100   58.13300
 4008.90000 2952.00000    1.50100   18.75900   55.35600
 4009.00000 2895.00000    1.49100   20.05300   63.65900
 4009.10000 3002.00000    1.59900   16.17400   58.44100
 4009.20000 2911.00000    1.53000   17.20700   57.81600
 4009.30000 2991.00000    1.45200   19.92400   68.27200
 4009.40000 2938.00000    1.48100   17.33600   68.58000
 4009.50000 3024.00000    1.38300   18.24200   67.65700
 4009.60000 3001.00000    1.35300   17.98300   67.65700
 4009.70000 3037.00000    1.59900   19.40600   56.58600
 4009.80000 2919.00000    1.52000   19.01800   59.04600
 4009.90000 2910.00000    1.81400   20.31200   58.43100
 4010.00000 2977.00000    1.62800   22.77000   57.50900
 4010.10000 3077.00000    1.68700   23.15800   57.81600
 4010.20000 3075.00000    1.55900   18.37100   54.43300
 4010.30000 3072.00000    1.52000   22.51100   65.19700
 4010.40000 3131.00000    1.50100   19.92400   67.96500
 4010.50000 3433.00000    1.79500   23.93400   59.66100
 4010.60000 3744.00000    1.72600   19.79800   59.67100
 4010.70000 3799.00000    1.89300   25.49100   61.82400
 4010.80000 3883.00000    1.98200   26.53100   61.83500
 4010.90000 3695.00000    1.72600   21.86800   53.52000
 4011.00000 3763.00000    1.72600   23.55000   65.82300
 4011.10000 3858.00000    1.84400   23.42100   57.51800
 4011.20000 3784.00000    1.92300   22.90300   61.51700
