~Version ---------------------------------------------------
VERS.   2.0 : CWLS log ASCII Standard -VERSION 2.0
WRAP.    NO : One line per depth step
DLM . SPACE : Column Data Section Delimiter
~Well ------------------------------------------------------
STRT.m    3837.00000 : START DEPTH
STOP.m    4016.70000 : STOP DEPTH
STEP.m       0.10000 : STEP
NULL.       -9999.25 : NULL VALUE
COMP.                : COMPANY
WELL. Volve 15_9-19A : WELL
FLD .                : FIELD
LOC .                : LOCATION
PROV.                : PROVINCE
CNTY.                : COUNTY
STAT.                : STATE
CTRY.                : COUNTRY
SRVC.                : SERVICE COMPANY
DATE.                : DATE
UWI .                : UNIQUE WELL ID
API .                : API NUMBER
~Curve Information -----------------------------------------
DEPTH.m   [3837.  3837.1 3837.2 ... 4016.5 4016.6 4016.7] : DEPTH
GR   .c/min           [3047 3343 3174 ... 3107 2945 2783] : GR
K    .%         [1.697 1.462 1.618 ... 1.442 1.53  1.618] : K
U    .ppm [17.854 17.727 19.406 ... 19.018 21.735 24.452] : U
TH   .ppm [62.429 69.207 61.814 ... 67.965 64.274 60.583] : TH
~Params ----------------------------------------------------
~Other -----------------------------------------------------
~ASCII -----------------------------------------------------
# ...
 3939.70000 3234.00000    1.55000   17.59800   61.51700
 3939.80000 3406.00000    1.44200   22.12700   63.97800
 3939.90000 3410.00000    1.58900   21.73800   55.36500
 3940.00000 3303.00000    1.49100   20.95900   66.12000
 3940.10000 3354.00000    1.57900   22.64400   66.43800
 3940.20000 3297.00000    1.56000   19.53900   53.21200
 3940.30000 3141.00000    1.50100   18.88900   61.81400
 3940.40000 3038.00000    1.46100   20.18200   71.96300
 3940.50000 3095.00000    1.43200   19.15100   55.36500
 3940.60000 2970.00000    1.44200   16.30100   67.35000
 3940.70000 2964.00000    1.31400   17.72400   66.73500
 3940.80000 3419.00000    1.69700   19.53900   68.59100
 3940.90000 3837.00000    1.62800   23.29100   61.51700
 3941.00000 3877.00000    1.65800   25.10300   59.05600
 3941.10000 4040.00000    1.63800   24.71900   61.83500
 3941.20000 3863.00000    1.98100   18.50400   61.51700
 3941.30000 3761.00000    1.67700   22.77400   64.28500
 3941.40000 3592.00000    1.71600   19.53500   57.81600
 3941.50000 3597.00000    1.74600   21.99700   68.28400
 3941.60000 3678.00000    1.45200   19.66800   61.51700
 3941.70000 3757.00000    1.54000   20.05600   59.67100
 3941.80000 3823.00000    1.57900   24.71500   57.82600
 3941.90000 3605.00000    1.66800   19.53900   62.13200
 3942.00000 3430.00000    1.79500   18.24200   64.58200
 3942.10000 3518.00000    1.61900   20.18600   64.59300
 3942.20000 3182.00000    1.38300   19.01800   58.43100
 3942.30000 3186.00000    1.60800   19.79400   65.81200
 3942.40000 3146.00000    1.68700   21.99400   68.88700
 3942.50000 3239.00000    1.58900   16.68900   62.12200
 3942.60000 4019.00000    1.72600   23.55000   71.05200
 3942.70000 4657.00000    2.10900   24.84800   59.68100
 3942.80000 4487.00000    1.88300   21.35000   53.21200
 3942.90000 4298.00000    2.08900   22.64400   55.36500
 3943.00000 4523.00000    1.93300   24.33000   62.75800
 3943.10000 4702.00000    1.85400   25.88300   62.75800
 3943.20000 4575.00000    1.97200   26.13800   64.59300
 3943.30000 4519.00000    1.69700   21.09100   56.90300
 3943.40000 4349.00000    2.03000   24.71500   64.28500
 3943.50000 4252.00000    1.79500   20.83300   64.59300
 3943.60000 4396.00000    1.77500   23.67900   57.51800
 3943.70000 4471.00000    1.72600   22.38500   67.97600
 3943.80000 4021.00000    2.06000   19.92700   62.13200
 3943.90000 3568.00000    1.69700   24.19300   57.50900
 3944.00000 3353.00000    1.55900   18.75900   52.28100
 3944.10000 3453.00000    1.78500   17.33600   58.73900
 3944.20000 3556.00000    1.83400   23.16200   61.51700
 3944.30000 3497.00000    1.65800   19.92700   59.97900
 3944.40000 3474.00000    1.61900   21.60900   63.67000
 3944.50000 3847.00000    1.71700   21.60900   61.82400
 3944.60000 4259.00000    1.66800   19.79800   60.28700
 3944.70000 4332.00000    1.79500   24.32600   63.36200
 3944.80000 4190.00000    2.01100   21.09100   63.05500
 3944.90000 3895.00000    1.72600   20.83300   60.90200
 3945.00000 3726.00000    1.97200   19.02100   61.82400
 3945.10000 4054.00000    1.95200   20.96200   63.67000
 3945.20000 4154.00000    1.85400   21.48000   65.82300
 3945.30000 4614.00000    2.02100   25.36600   65.52700
 3945.40000 4912.00000    2.07000   21.87200   58.45100
 3945.50000 5058.00000    2.09000   23.55400   61.52700
 3945.60000 4966.00000    2.43300   26.14200   66.75700
 3945.70000 4749.00000    2.26600   24.20100   59.37400
 3945.80000 4576.00000    1.99200   26.53100   58.14300
 3945.90000 4089.00000    1.63800   21.86800   54.44200
 3946.00000 4091.00000    1.93200   23.29100   55.36500
 3946.10000 4215.00000    2.02100   21.73800   58.44100
 3946.20000 4653.00000    1.94200   24.32600   68.28400
 3946.30000 4826.00000    2.20700   23.42500   72.60200
 3946.40000 4513.00000    1.69700   22.51900   64.60400
 3946.50000 4522.00000    1.82500   21.99700   60.59400
 3946.60000 4306.00000    2.19800   23.94200   57.52800
 3946.70000 4316.00000    1.73600   19.66800   59.36400
 3946.80000 4235.00000    1.79500   23.55000   62.13200
 3946.90000 4320.00000    1.87400   23.16200   59.97900
 3947.00000 4903.00000    2.03100   25.23600   66.14200
 3947.10000 4912.00000    1.87400   22.26000   72.29500
 3947.20000 4852.00000    1.90300   23.29500   66.14200
 3947.30000 4610.00000    2.04100   21.87200   60.60400
 3947.40000 4517.00000    1.81500   20.05600   72.89800
 3947.50000 4188.00000    1.99100   19.40900   62.74700
 3947.60000 3735.00000    1.84400   18.50400   57.82600
 3947.70000 3529.00000    1.58900   21.21700   62.73700
 3947.80000 3426.00000    1.60800   16.30100   66.73500
 3947.90000 3575.00000    1.64800   21.47600   62.12200
 3948.00000 3395.00000    1.56900   19.28000   56.59600
 3948.10000 3561.00000    1.60900   21.99700   59.67100
 3948.20000 3969.00000    1.75600   20.96200   63.05500
 3948.30000 4141.00000    1.75600   22.38500   50.75100
 3948.40000 4366.00000    1.68700   22.13000   65.21900
 3948.50000 4430.00000    1.93200   21.22100   62.44000
 3948.60000 4183.00000    1.92300   22.38500   58.74900
 3948.70000 4139.00000    1.86400   20.70300   60.59400
 3948.80000 3972.00000    1.72600   21.22100   55.98000
 3948.90000 3856.00000    1.78500   21.09100   59.36400
 3949.00000 4153.00000    1.86400   19.53900   66.43800
 3949.10000 3964.00000    1.58900   20.83300   60.90200
 3949.20000 3608.00000    1.41300   21.60900   53.82700
 3949.30000 3452.00000    1.70700   20.05600   52.28900
 3949.40000 3724.00000    1.65800   22.77400   69.20700
 3949.50000 3683.00000    1.78500   22.12700   55.98000
 3949.60000 3776.00000    1.67700   20.96200   58.44100
 3949.70000 3663.00000    1.98100   17.72700   53.82700
 3949.80000 3535.00000    1.57900   19.79800   59.97900
 3949.90000 3630.00000    1.68700   21.73800   57.51800
 3950.00000 3736.00000    1.61900   18.37400   67.97600
 3950.10000 4023.00000    1.63800   17.33900   60.90200
 3950.20000 4528.00000    1.92300   25.36200   63.36200
 3950.30000 5837.00000    2.60000   27.44100   65.84500
 3950.40000 7316.00000    2.78700   27.96400   63.08700
 3950.50000 7396.00000    2.67900   28.74000   68.31800
 3950.60000 5937.00000    2.27600   27.17800   66.44900
 3950.70000 4770.00000    1.78600   20.96600   62.75800
 3950.80000 4197.00000    1.77500   21.22100   61.82400
 3950.90000 3982.00000    1.80500   21.60900   57.21100
 3951.00000 3920.00000    1.77500   20.31500   61.20900
 3951.10000 4063.00000    1.74600   21.99700   59.67100
 3951.20000 4123.00000    1.92300   20.57400   61.82400
 3951.30000 4286.00000    1.75600   20.70300   61.82400
 3951.40000 3994.00000    1.93200   20.57400   64.59300
 3951.50000 3621.00000    1.75600   21.22100   56.59600
 3951.60000 3586.00000    1.90300   16.43000   55.35600
 3951.70000 3803.00000    1.78500   19.92700   60.59400
 3951.80000 4006.00000    1.89300   20.96200   59.36400
 3951.90000 4127.00000    1.94200   23.03200   61.82400
 3952.00000 4263.00000    2.00100   23.67900   60.59400
 3952.10000 4499.00000    2.01100   24.97800   69.83300
 3952.20000 4452.00000    1.84400   23.80900   62.74700
 3952.30000 4275.00000    1.92300   21.87200   60.29700
 3952.40000 4508.00000    1.78500   22.90300   66.74600
 3952.50000 3921.00000    1.87400   21.73800   61.82400
 3952.60000 3719.00000    1.50100   19.28000   57.82600
 3952.70000 3705.00000    1.77500   18.37400   57.51800
 3952.80000 3729.00000    1.71700   17.59800   67.36100
 3952.90000 3637.00000    1.90300   17.72700   70.74400
 3953.00000 3553.00000    1.77500   20.44100   66.42700
 3953.10000 3573.00000    1.59900   20.83300   57.82600
 3953.20000 3750.00000    1.78500   19.02100   62.13200
 3953.30000 4508.00000    2.11900   24.58900   55.06700
 3953.40000 4147.00000    1.82500   20.44400   57.51800
 3953.50000 3592.00000    1.57900   20.83300   57.82600
 3953.60000 4025.00000    1.81500   22.12700   71.05200
 3953.70000 4694.00000    1.80500   25.62500   65.52700
 3953.80000 4528.00000    2.10000   24.58900   67.06500
 3953.90000 4048.00000    1.62800   21.73800   63.67000
