~Version ---------------------------------------------------
VERS.   2.0 : CWLS log ASCII Standard -VERSION 2.0
WRAP.    NO : One line per depth step
DLM . SPACE : Column Data Section Delimiter
~Well ------------------------------------------------------
STRT.m    3837.00000 : START DEPTH
STOP.m    4016.70000 : STOP DEPTH
STEP.m       0.10000 : STEP
NULL.       -9999.25 : NULL VALUE
COMP.                : COMPANY
WELL. Volve 15_9-19A : WELL
FLD .                : FIELD
LOC .                : LOCATION
PROV.                : PROVINCE
CNTY.                : COUNTY
STAT.                : STATE
CTRY.                : COUNTRY
SRVC.                : SERVICE COMPANY
DATE.                : DATE
UWI .                : UNIQUE WELL ID
API .                : API NUMBER
~Curve Information -----------------------------------------
DEPTH.m   [3837.  3837.1 3837.2 ... 4016.5 4016.6 4016.7] : DEPTH
GR   .c/min           [3047 3343 3174 ... 3107 2945 2783] : GR
K    .%         [1.697 1.462 1.618 ... 1.442 1.53  1.618] : K
U    .ppm [17.854 17.727 19.406 ... 19.018 21.735 24.452] : U
TH   .ppm [62.429 69.207 61.814 ... 67.965 64.274 60.583] : TH
~Params ----------------------------------------------------
~Other -----------------------------------------------------
~ASCII -----------------------------------------------------
# ...
 3851.30000 3348.00000    1.29500   21.21700   66.42700
 3851.40000 3250.00000    1.49100   19.40600   59.96900
 3851.50000 3330.00000    1.57900   20.05300   59.04600
 3851.60000 3291.00000    1.63800   20.82900   57.20100
 3851.70000 3304.00000    1.50100   22.64000   58.43100
 3851.80000 3306.00000    1.46100   21.47600   65.50500
 3851.90000 3159.00000    1.50100   22.38200   61.81400
 3852.00000 3169.00000    1.41200   21.47600   64.27400
 3852.10000 3253.00000    1.61800   22.89900   60.58400
 3852.22000 3239.00000    1.36300   21.21700   56.89400
 3854.00000 3061.00000    1.57900   19.40600   61.50700
 3854.10000 3258.00000    1.72600   17.46500   63.65900
 3854.20000 3225.00000    1.55900   17.85400   61.81400
 3854.30000 3245.00000    1.55000   21.86400   64.58200
 3854.40000 3262.00000    1.53000   19.27700   53.81800
 3854.50000 3446.00000    1.77500   24.96900   57.50900
 3854.60000 3561.00000    1.55900   19.40600   62.42900
 3854.70000 4062.00000    1.82500   23.80900   56.28800
 3854.80000 3893.00000    1.68700   18.63300   62.13200
 3854.90000 3650.00000    1.77500   21.21700   59.35400
 3855.00000 3719.00000    1.86300   20.18200   63.04400
 3855.10000 3926.00000    1.91300   20.18600   66.43800
 3855.20000 3757.00000    1.60900   21.99700   69.82200
 3855.30000 3692.00000    1.66800   21.09100   66.43800
 3855.40000 3636.00000    1.54000   25.35700   63.04400
 3855.50000 3489.00000    1.55000   23.15800   63.96700
 3855.60000 3560.00000    1.54000   21.73500   65.50500
 3855.70000 3286.00000    1.71700   19.92700   59.97900
 3855.80000 3256.00000    1.67700   18.24200   58.12400
 3855.90000 3231.00000    1.35300   21.34700   66.73500
 3856.00000 3241.00000    1.67700   20.31200   63.65900
 3856.10000 3271.00000    1.54000   21.21700   58.73900
 3856.20000 3382.00000    1.71600   19.92400   63.04400
 3856.30000 3413.00000    1.71700   20.57400   55.05800
 3856.40000 3581.00000    1.57900   20.57400   62.44000
 3856.50000 3479.00000    1.53000   21.99400   65.50500
 3856.60000 3306.00000    1.42200   19.14700   64.27400
 3856.70000 3407.00000    1.67700   17.46500   63.04400
 3856.80000 3308.00000    1.72600   19.66800   63.05500
 3856.90000 3308.00000    1.48100   23.15800   53.51100
 3857.00000 3223.00000    1.59900   21.21700   60.89200
 3857.10000 3334.00000    1.56900   20.82900   55.66300
 3857.20000 3332.00000    1.60900   20.44400   66.74600
 3857.30000 3312.00000    1.81400   18.50000   58.73900
 3857.40000 3328.00000    1.58900   20.70000   63.04400
 3857.50000 3224.00000    1.58900   21.08800   59.35400
 3857.60000 3197.00000    1.76500   23.54600   65.81200
 3857.70000 3265.00000    1.43200   23.02900   63.04400
 3857.80000 3080.00000    1.62800   18.88900   60.58400
 3857.90000 3115.00000    1.51000   21.47600   62.42900
 3858.00000 3135.00000    1.68700   21.47600   66.42700
 3858.10000 3177.00000    1.65700   20.05300   58.73900
 3858.20000 3187.00000    1.52000   19.92400   62.73700
 3858.30000 3132.00000    1.76500   18.11200   61.50700
 3858.40000 3080.00000    1.62800   17.85400   61.81400
 3858.50000 3188.00000    1.69700   20.31200   59.96900
 3858.60000 3174.00000    1.70700   21.08800   62.12200
 3858.70000 3015.00000    1.54000   22.51100   51.97300
 3858.80000 3137.00000    1.62800   19.53500   64.27400
 3858.90000 3047.00000    1.61800   19.53500   63.96700
 3859.00000 3007.00000    1.65700   20.18200   61.50700
 3859.10000 3053.00000    1.43200   19.14700   60.27600
 3859.20000 3035.00000    1.55900   19.14700   66.42700
 3859.30000 3044.00000    1.70700   20.57000   64.27400
 3859.40000 3167.00000    1.75600   20.57000   62.12200
 3859.50000 3361.00000    1.59900   22.90300   65.82300
 3859.60000 3234.00000    1.71600   19.14700   56.27900
 3859.70000 3269.00000    1.67700   20.82900   62.12200
 3859.80000 3196.00000    1.69700   20.70000   63.35200
 3859.90000 2870.00000    1.51000   15.13700   66.73500
 3860.00000 2895.00000    1.55900   21.34700   63.35200
 3860.10000 2811.00000    1.56900   18.63000   55.04800
 3860.20000 2849.00000    1.55000   17.98300   63.65900
 3860.30000 2829.00000    1.55000   18.63000   59.35400
 3860.40000 2829.00000    1.52000   16.30100   63.65900
 3860.50000 2815.00000    1.27500   18.37100   63.35200
 3860.60000 2706.00000    1.34400   19.79400   58.43100
 3860.70000 2739.00000    1.41200   14.23100   55.35600
 3860.80000 2776.00000    1.53000   15.52500   52.28100
 3860.90000 2693.00000    1.49100   17.20700   57.81600
 3861.00000 2712.00000    1.38300   19.01800   63.35200
 3861.10000 2736.00000    1.52000   18.50000   54.43300
 3861.20000 2842.00000    1.23600   18.50000   67.04200
 3861.30000 2866.00000    1.45200   17.46500   58.43100
 3861.40000 2833.00000    1.39300   18.63000   57.81600
 3861.50000 2757.00000    1.55000   16.56000   56.27900
 3861.60000 2755.00000    1.42200   15.91300   61.50700
 3861.70000 2854.00000    1.36300   18.50000   52.28100
 3861.80000 2710.00000    1.33400   19.40600   57.81600
 3861.90000 2954.00000    1.56900   17.72400   68.58000
 3862.00000 2820.00000    1.47100   17.46500   65.19700
 3862.10000 2733.00000    1.38300   18.37100   54.12600
 3862.20000 2854.00000    1.30400   18.11200   59.96900
 3862.30000 2802.00000    1.36300   19.53500   58.73900
 3862.40000 2832.00000    1.60800   19.40600   60.58400
 3862.50000 2753.00000    1.43200   16.43000   61.50700
 3862.60000 2809.00000    1.16700   17.46500   52.58800
 3862.70000 2861.00000    1.29500   15.91300   55.66300
 3862.80000 2747.00000    1.43200   17.59200   59.03600
 3862.90000 2774.00000    1.55000   16.56000   62.12200
 3863.00000 2660.00000    1.33400   18.75900   63.96700
 3863.10000 2871.00000    1.65700   20.44100   59.04600
 3863.20000 2905.00000    1.44200   23.93400   56.89400
 3863.30000 2874.00000    1.26500   18.88900   61.50700
 3863.40000 2839.00000    1.42200   19.53500   55.04800
 3863.50000 2852.00000    1.35300   20.18200   67.65700
 3863.60000 2785.00000    1.50100   19.40600   62.73700
 3863.70000 2736.00000    1.28500   18.37100   51.05000
 3863.80000 2866.00000    1.55000   19.14700   52.58800
 3863.90000 2742.00000    1.50100   15.52500   60.58400
 3864.00000 2714.00000    1.47100   18.24200   58.73900
 3864.10000 2804.00000    1.45200   15.52500   64.88900
 3864.20000 2856.00000    1.56900   20.95900   53.51100
 3864.30000 2778.00000    1.47100   16.68900   60.89200
 3864.40000 2863.00000    1.62800   18.75900   62.42900
 3864.50000 2876.00000    1.40200   21.08800   61.81400
 3864.60000 2908.00000    1.61800   16.30100   70.11800
 3864.70000 2972.00000    1.47100   19.01800   61.81400
 3864.80000 2790.00000    1.25500   16.30100   60.27600
 3864.90000 2839.00000    1.39300   19.14700   63.04400
 3865.00000 2895.00000    1.41200   19.27700   63.65900
 3865.10000 2797.00000    1.44200   17.46500   57.50900
 3865.20000 2821.00000    1.57900   19.14700   57.20100
 3865.30000 2884.00000    1.56900   18.50000   61.50700
 3865.40000 2841.00000    1.49100   17.72400   72.27000
 3865.50000 2819.00000    1.59900   18.88900   57.20100
 3865.60000 2852.00000    1.38300   19.79400   63.04400
 3865.70000 2725.00000    1.55000   18.75900   57.81600
 3865.80000 2791.00000    1.46100   16.04200   65.19700
 3865.90000 2855.00000    1.40200   18.11200   56.58600
 3866.00000 2772.00000    1.64800   17.46500   66.12000
 3866.10000 2785.00000    1.43200   16.43000   61.50700
 3866.20000 2854.00000    1.37300   20.70000   55.97100
 3866.30000 2904.00000    1.54000   17.85400   56.89400
 3866.40000 2861.00000    1.53000   18.37100   66.12000
 3866.50000 2802.00000    1.39300   17.98300   62.73700
 3866.60000 2808.00000    1.67700   18.88900   59.66100
 3866.70000 2910.00000    1.58900   18.75900   62.73700
 3866.80000 2782.00000    1.50100   18.75900   58.43100
 3866.90000 2929.00000    1.62800   20.95900   59.66100
 3867.00000 2989.00000    1.61800   20.31200   51.97300
 3867.10000 3016.00000    1.42200   17.07700   61.81400
 3867.20000 3248.00000    1.52000   21.08800   66.42700
