~Version ---------------------------------------------------
VERS.   2.0 : CWLS log ASCII Standard -VERSION 2.0
WRAP.    NO : One line per depth step
DLM . SPACE : Column Data Section Delimiter
~Well ------------------------------------------------------
STRT.m    3837.00000 : START DEPTH
STOP.m    4016.70000 : STOP DEPTH
STEP.m       0.10000 : STEP
NULL.       -9999.25 : NULL VALUE
COMP.                : COMPANY
WELL. Volve 15_9-19A : WELL
FLD .                : FIELD
LOC .                : LOCATION
PROV.                : PROVINCE
CNTY.                : COUNTY
STAT.                : STATE
CTRY.                : COUNTRY
SRVC.                : SERVICE COMPANY
DATE.                : DATE
UWI .                : UNIQUE WELL ID
API .                : API NUMBER
~Curve Information -----------------------------------------
DEPTH.m   [3837.  3837.1 3837.2 ... 4016.5 4016.6 4016.7] : DEPTH
GR   .c/min           [3047 3343 3174 ... 3107 2945 2783] : GR
K    .%         [1.697 1.462 1.618 ... 1.442 1.53  1.618] : K
U    .ppm [17.854 17.727 19.406 ... 19.018 21.735 24.452] : U
TH   .ppm [62.429 69.207 61.814 ... 67.965 64.274 60.583] : TH
~Params ----------------------------------------------------
~Other -----------------------------------------------------
~ASCII -----------------------------------------------------
# ...
 3982.60000 3219.00000    1.60800   24.45200   56.89400
 3982.70000 3137.00000    1.85400   21.73500   58.12400
 3982.80000 3183.00000    1.65700   19.79400   66.12000
 3982.90000 3111.00000    1.61800   23.02900   65.81200
 3983.00000 3202.00000    1.43200   20.31200   65.81200
 3983.10000 3610.00000    1.58900   20.05600   66.43800
 3983.20000 3950.00000    1.59900   22.51500   68.28400
 3983.30000 3726.00000    1.83400   23.03200   74.12800
 3983.40000 3322.00000    1.55000   21.08800   63.65900
 3983.50000 3273.00000    1.75600   17.72400   67.96500
 3983.60000 3114.00000    1.52000   19.14700   55.66300
 3983.70000 3290.00000    1.70700   21.60500   62.42900
 3983.80000 3426.00000    1.75600   22.77400   54.75000
 3983.90000 3440.00000    1.69700   21.08800   61.50700
 3984.00000 3244.00000    1.52000   22.25600   62.44000
 3984.10000 3451.00000    1.51100   22.64400   60.90200
 3984.20000 3881.00000    1.80500   25.62000   60.90200
 3984.30000 3769.00000    1.89300   21.35000   66.43800
 3984.40000 3465.00000    1.47100   22.51500   58.44100
 3984.50000 3276.00000    1.97200   23.16200   63.67000
 3984.60000 3203.00000    1.67700   21.22100   59.97900
 3984.70000 3258.00000    1.56000   21.35000   61.51700
 3984.80000 3162.00000    1.77500   19.40600   61.50700
 3984.90000 3109.00000    1.58900   20.70000   60.27600
 3985.00000 2995.00000    1.59900   18.63000   63.65900
 3985.10000 3264.00000    1.66700   21.34700   58.43100
 3985.20000 3280.00000    1.82400   20.95900   61.50700
 3985.30000 3177.00000    1.69700   19.53500   60.27600
 3985.40000 3233.00000    1.58900   18.88900   58.73900
 3985.50000 3126.00000    1.60800   18.88900   63.65900
 3985.60000 3135.00000    1.64800   21.08800   63.04400
 3985.70000 3010.00000    1.51000   18.11200   49.20500
 3985.80000 3042.00000    1.67700   19.79400   57.50900
 3985.90000 3078.00000    1.43200   22.12300   63.04400
 3986.00000 2941.00000    1.53000   18.63000   55.35600
 3986.10000 3094.00000    1.45200   20.95900   54.12600
 3986.20000 3169.00000    1.68700   18.11200   59.96900
 3986.30000 3161.00000    1.58900   19.66500   61.50700
 3986.40000 3012.00000    1.63800   19.92400   63.35200
 3986.50000 3102.00000    1.40200   22.51100   63.04400
 3986.60000 3113.00000    1.62800   18.37100   55.35600
 3986.70000 3165.00000    1.62800   21.47600   59.04600
 3986.80000 3220.00000    1.52000   20.70000   54.12600
 3986.90000 3442.00000    1.58900   20.05600   66.43800
 3987.00000 3234.00000    1.83400   17.85400   64.88900
 3987.10000 3252.00000    1.59900   20.44100   56.58600
 3987.20000 3441.00000    1.50100   23.16200   65.82300
 3987.30000 3265.00000    1.83400   21.47600   57.20100
 3987.40000 3525.00000    1.84400   20.44400   57.82600
 3987.50000 3782.00000    1.63800   22.77400   63.97800
 3987.60000 3791.00000    1.69700   22.77000   67.65700
 3987.70000 3453.00000    1.68700   21.47600   61.81400
 3987.80000 3326.00000    1.73600   21.21700   72.88500
 3987.90000 3301.00000    1.72600   20.82900   59.96900
 3988.00000 3166.00000    1.62800   19.92400   68.58000
 3988.10000 3117.00000    1.54000   19.66500   53.20300
 3988.20000 3152.00000    1.36300   22.12300   64.88900
 3988.30000 3179.00000    1.73600   23.15800   57.20100
 3988.40000 3154.00000    1.76600   20.44400   63.05500
 3988.50000 3236.00000    1.82400   16.30100   65.50500
 3988.60000 3159.00000    1.63800   22.64000   67.35000
 3988.70000 3116.00000    1.67700   19.40600   62.12200
 3988.80000 3168.00000    1.54000   21.21700   60.27600
 3988.90000 3152.00000    1.78500   19.92400   61.50700
 3989.00000 3292.00000    1.61800   19.79400   59.96900
 3989.10000 3332.00000    1.60800   18.63000   68.58000
 3989.20000 3160.00000    1.70700   20.95900   56.58600
 3989.30000 2910.00000    1.42200   19.79400   56.27900
 3989.40000 3065.00000    1.52000   23.15800   61.81400
 3989.50000 3243.00000    1.70700   21.47600   60.58400
 3989.60000 3216.00000    1.84400   19.40600   58.73900
 3989.70000 3265.00000    1.46100   22.77000   70.11800
 3989.80000 3343.00000    1.61800   21.21700   49.82000
 3990.00000 3045.00000    1.55000   21.60900   56.28800
 3990.10000 3169.00000    1.60900   26.39700   54.13500
 3990.20000 3102.00000    1.57900   26.26300   48.59000
 3990.30000 3183.00000    1.65800   26.91400   55.05800
 3990.40000 3295.00000    1.46200   25.49100   51.36700
 3990.50000 3439.00000    1.71700   24.32600   56.28800
 3990.60000 3167.00000    1.64800   26.00900   55.67300
 3990.70000 3186.00000    1.64800   25.36200   52.90500
 3990.80000 3162.00000    1.46200   23.42100   59.97900
 3990.90000 3032.00000    1.70700   24.96900   61.50700
 3991.00000 3277.00000    1.66800   22.38500   55.98000
 3991.10000 3668.00000    1.71700   22.25600   60.90200
 3991.20000 3612.00000    1.68700   23.42100   61.51700
 3991.30000 3568.00000    1.72600   23.16200   54.13500
 3991.40000 3386.00000    1.57900   20.95900   61.19900
 3991.50000 3429.00000    1.74600   23.02900   69.50200
 3991.60000 3475.00000    1.61900   19.66800   60.90200
 3991.70000 3303.00000    1.63800   21.21700   61.19900
 3991.80000 3082.00000    1.71600   16.68900   56.27900
 3991.90000 3119.00000    1.55900   18.63000   68.27200
 3992.00000 3244.00000    1.41200   19.01800   58.73900
 3992.10000 3561.00000    1.55000   19.27700   53.20300
 3992.20000 3516.00000    1.61800   17.59500   65.50500
 3992.30000 3355.00000    1.34400   20.18200   63.65900
 3992.40000 3411.00000    1.50100   17.20700   71.34800
 3992.50000 3324.00000    1.66700   21.47600   68.27200
 3992.60000 3379.00000    1.64800   22.89900   62.73700
 3992.70000 3258.00000    1.70700   19.40600   62.42900
 3992.80000 3069.00000    1.55000   17.20700   55.35600
 3992.90000 2980.00000    1.50100   17.85400   67.65700
 3993.00000 3143.00000    1.63800   19.02100   63.36200
 3993.10000 3069.00000    1.42200   17.85400   64.58200
 3993.20000 3116.00000    1.44200   17.59500   64.58200
 3993.30000 3456.00000    1.57900   20.57000   67.65700
 3993.40000 3635.00000    1.58900   24.32200   62.42900
 3993.50000 3549.00000    1.57900   17.85700   63.67000
 3993.60000 3521.00000    1.76500   20.95900   57.81600
 3993.70000 3615.00000    1.57900   20.70300   66.13100
 3993.80000 3421.00000    1.60800   21.60500   55.97100
 3993.90000 3369.00000    1.77500   23.55000   66.74600
 3994.00000 3265.00000    1.67700   21.47600   56.58600
 3994.10000 3425.00000    1.54000   19.79400   60.58400
 3994.20000 3640.00000    1.72600   25.49100   68.89900
 3994.30000 3597.00000    1.77500   22.12300   59.66100
 3994.40000 3589.00000    1.56000   24.32600   58.13300
 3994.50000 3573.00000    1.92300   20.57400   58.13300
 3994.60000 3568.00000    1.68700   22.38500   61.51700
 3994.70000 3721.00000    1.84400   20.96200   61.51700
 3994.80000 3641.00000    1.87400   23.55000   56.28800
 3994.90000 3398.00000    1.62800   20.18200   61.81400
 3995.00000 3373.00000    1.90300   20.44100   57.81600
 3995.10000 3415.00000    1.55000   21.47600   60.89200
 3995.20000 3441.00000    1.65700   23.02900   56.27900
 3995.30000 3382.00000    1.65700   22.38200   59.66100
 3995.40000 3430.00000    1.56900   21.47600   61.19900
 3995.50000 3393.00000    1.60800   20.31200   67.65700
 3995.60000 3360.00000    1.58900   26.26300   68.58000
 3995.70000 3455.00000    1.65700   20.57000   55.66300
 3995.80000 3271.00000    1.46100   20.95900   57.81600
 3995.90000 3387.00000    1.78500   19.27700   63.04400
 3996.00000 3464.00000    1.69700   24.84000   57.20100
 3996.10000 3481.00000    1.72600   22.89900   64.88900
 3996.20000 3522.00000    1.64800   24.19700   58.74900
 3996.30000 3595.00000    1.93200   19.92700   55.36500
 3996.40000 3444.00000    1.82500   22.51500   62.74700
 3996.50000 3482.00000    1.80500   24.19700   59.67100
 3996.60000 3408.00000    1.74600   22.25200   55.66300
 3996.70000 3430.00000    1.70700   19.92400   53.81800
 3996.80000 3490.00000    1.81400   22.12300   52.89600
 3996.90000 3463.00000    2.02000   23.93400   53.51100
