~Version ---------------------------------------------------
VERS.   2.0 : CWLS log ASCII Standard -VERSION 2.0
WRAP.    NO : One line per depth step
DLM . SPACE : Column Data Section Delimiter
~Well ------------------------------------------------------
STRT.m    3837.00000 : START DEPTH
STOP.m    4016.70000 : STOP DEPTH
STEP.m       0.10000 : STEP
NULL.       -9999.25 : NULL VALUE
COMP.                : COMPANY
WELL. Volve 15_9-19A : WELL
FLD .                : FIELD
LOC .                : LOCATION
PROV.                : PROVINCE
CNTY.                : COUNTY
STAT.                : STATE
CTRY.                : COUNTRY
SRVC.                : SERVICE COMPANY
DATE.                : DATE
UWI .                : UNIQUE WELL ID
API .                : API NUMBER
~Curve Information -----------------------------------------
DEPTH.m   [3837.  3837.1 3837.2 ... 4016.5 4016.6 4016.7] : DEPTH
GR   .c/min           [3047 3343 3174 ... 3107 2945 2783] : GR
K    .%         [1.697 1.462 1.618 ... 1.442 1.53  1.618] : K
U    .ppm [17.854 17.727 19.406 ... 19.018 21.735 24.452] : U
TH   .ppm [62.429 69.207 61.814 ... 67.965 64.274 60.583] : TH
~Params ----------------------------------------------------
~Other -----------------------------------------------------
~ASCII -----------------------------------------------------
 3837.00000 3047.00000    1.69700   17.85400   62.42900
 3837.10000 3343.00000    1.46200   17.72700   69.20700
 3837.20000 3174.00000    1.61800   19.40600   61.81400
 3837.30000 3127.00000    1.30500   16.69200   61.51700
 3837.40000 3024.00000    1.39300   18.37100   55.97100
 3837.50000 2852.00000    1.55000   17.46500   60.27600
 3837.60000 2942.00000    1.44200   18.37100   59.66100
 3837.70000 3000.00000    1.45200   18.75900   59.35400
 3837.80000 3031.00000    1.46100   18.50000   63.04400
 3837.90000 3007.00000    1.47100   21.34700   61.19900
 3838.00000 2871.00000    1.44200   17.85400   67.04200
 3838.10000 2988.00000    1.62800   17.98300   66.42700
 3838.20000 2956.00000    1.50100   18.24200   55.97100
 3838.30000 2921.00000    1.40200   18.24200   60.58400
 3838.40000 2954.00000    1.73600   19.14700   60.58400
 3838.50000 2773.00000    1.49100   15.13700   58.73900
 3838.60000 2928.00000    1.46100   19.40600   71.04000
 3838.70000 2829.00000    1.52000   18.75900   52.28100
 3838.80000 2884.00000    1.36300   17.20700   63.35200
 3838.90000 2853.00000    1.38300   16.81900   58.12400
 3839.00000 2849.00000    1.42200   16.43000   66.42700
 3839.10000 2933.00000    1.43200   18.63000   63.65900
 3839.20000 3026.00000    1.53000   15.52500   66.42700
 3839.30000 2976.00000    1.43200   18.11200   58.73900
 3839.40000 3015.00000    1.38300   19.92400   55.97100
 3839.50000 2903.00000    1.28500   19.40600   60.89200
 3839.60000 2910.00000    1.66700   20.44100   61.19900
 3839.70000 2906.00000    1.44200   17.98300   63.35200
 3839.80000 2883.00000    1.53000   18.11200   54.12600
 3839.90000 2958.00000    1.41200   20.70000   59.04600
 3840.00000 2953.00000    1.50100   17.46500   54.43300
 3840.10000 2819.00000    1.47100   18.50000   54.43300
 3840.20000 2966.00000    1.49100   19.66500   58.73900
 3840.30000 3064.00000    1.49100   20.57000   58.43100
 3840.40000 3080.00000    1.58900   22.51100   55.04800
 3840.50000 3092.00000    1.68700   17.20700   67.35000
 3840.60000 3001.00000    1.73600   19.27700   59.96900
 3840.70000 3065.00000    1.49100   21.73500   52.58800
 3840.80000 3052.00000    1.51000   20.57000   57.20100
 3840.90000 3015.00000    1.55000   18.89200   66.43800
 3841.00000 3028.00000    1.39300   21.60500   55.66300
 3841.10000 3045.00000    1.62800   20.05300   65.50500
 3841.20000 3120.00000    1.52000   19.53500   61.81400
 3841.30000 3127.00000    1.71600   18.88900   60.58400
 3841.40000 3127.00000    1.52000   20.18200   62.42900
 3841.50000 3084.00000    1.83400   22.89900   61.50700
 3841.60000 3129.00000    1.41300   21.35000   69.82200
 3841.70000 3172.00000    1.49100   20.57000   66.42700
 3841.80000 3165.00000    1.34400   18.63300   63.67000
 3841.90000 3231.00000    1.51000   22.77000   59.35400
 3842.00000 3120.00000    1.55900   17.72400   57.20100
 3842.10000 3121.00000    1.68700   19.79400   62.73700
 3842.20000 3072.00000    1.56900   22.25200   59.96900
 3842.30000 3095.00000    1.57900   21.60500   67.04200
 3842.40000 3152.00000    1.52000   18.88900   67.04200
 3842.50000 3114.00000    1.70700   18.75900   59.35400
 3842.60000 2975.00000    1.38300   20.57000   59.04600
 3842.70000 3125.00000    1.60800   22.89900   70.42500
 3842.80000 3049.00000    1.50100   20.57000   55.35600
 3842.90000 3196.00000    1.61800   19.53500   62.12200
 3843.00000 3079.00000    1.58900   18.63000   60.27600
 3843.10000 2953.00000    1.37300   20.44100   62.42900
 3843.20000 3149.00000    1.53000   19.92400   68.88700
 3843.30000 3188.00000    1.61800   17.72400   63.35200
 3843.40000 3135.00000    1.50100   19.53500   57.81600
 3843.50000 3226.00000    1.56900   16.43000   66.73500
 3843.60000 3158.00000    1.47100   19.92400   64.88900
 3843.70000 3248.00000    1.44200   20.57000   59.96900
 3843.80000 3171.00000    1.68700   20.70000   60.89200
 3843.90000 2944.00000    1.57900   17.98300   59.66100
 3844.00000 2808.00000    1.42200   16.94800   55.66300
 3844.10000 3055.00000    1.47100   17.46500   74.42300
 3844.20000 3061.00000    1.66700   18.63000   63.65900
 3844.30000 3076.00000    1.48100   20.18200   53.51100
 3844.40000 3164.00000    1.72600   17.46800   62.13200
 3844.50000 3039.00000    1.65700   16.81900   65.50500
 3844.60000 3158.00000    1.56900   20.95900   66.12000
 3844.70000 3186.00000    1.60800   20.57000   59.66100
 3844.80000 3098.00000    1.74600   20.70000   56.89400
 3844.90000 3027.00000    1.55000   21.86400   66.73500
 3845.00000 3111.00000    1.66700   19.14700   52.58800
 3845.10000 3241.00000    1.64800   21.34700   58.43100
 3845.20000 3248.00000    1.74600   18.88900   58.73900
 3845.30000 3165.00000    1.63800   16.30100   60.27600
 3845.40000 3260.00000    1.65800   21.09100   63.36200
 3845.50000 3247.00000    1.52000   19.92400   59.04600
 3845.60000 3209.00000    1.85400   21.47600   61.50700
 3845.70000 3137.00000    1.40200   17.98300   68.58000
 3845.80000 3096.00000    1.36300   18.37100   60.58400
 3845.90000 3059.00000    1.57900   19.66500   61.81400
 3846.00000 3008.00000    1.53000   17.07700   63.35200
 3846.10000 3125.00000    1.48100   20.05300   57.81600
 3846.20000 3213.00000    1.62800   21.73500   54.74100
 3846.30000 3261.00000    1.67700   21.60500   62.42900
 3846.40000 3197.00000    1.55000   19.40600   55.97100
 3846.50000 3255.00000    1.65700   19.92400   55.97100
 3846.60000 3356.00000    1.65700   20.18200   62.42900
 3846.70000 3215.00000    1.47100   21.08800   59.66100
 3846.80000 3163.00000    1.59900   18.89200   57.21100
 3846.90000 3193.00000    1.64800   21.08800   55.97100
 3847.00000 3232.00000    1.69700   22.25200   58.73900
 3847.10000 3329.00000    1.69700   20.05300   55.66300
 3847.20000 3169.00000    1.62800   20.05300   54.43300
 3847.30000 3264.00000    1.75600   17.85400   64.27400
 3847.40000 3191.00000    1.70700   21.73500   66.42700
 3847.50000 3227.00000    1.69700   19.79400   62.73700
 3847.60000 3241.00000    1.69700   19.53900   69.51400
 3847.70000 3179.00000    1.77500   18.24200   65.19700
 3847.80000 3175.00000    1.67700   19.27700   65.81200
 3847.90000 3032.00000    1.49100   20.18200   54.74100
 3848.00000 2956.00000    1.53000   17.85400   65.19700
 3848.10000 3069.00000    1.70700   20.95900   52.89600
 3848.20000 3290.00000    1.84400   21.09100   62.44000
 3848.30000 3200.00000    1.79500   22.51100   59.66100
 3848.40000 3142.00000    1.64800   22.77000   56.89400
 3848.50000 3085.00000    1.52000   18.37100   59.96900
 3848.60000 3288.00000    1.95200   19.02100   62.74700
 3848.70000 3067.00000    1.83400   20.05300   59.66100
 3848.80000 3265.00000    1.63800   23.80500   57.20100
 3848.90000 3076.00000    1.56900   20.95900   56.58600
 3849.00000 3098.00000    1.61800   20.44100   60.27600
 3849.10000 3228.00000    1.81400   20.70000   62.73700
 3849.20000 3317.00000    1.68700   21.08800   60.58400
 3849.30000 3276.00000    1.37300   20.57000   62.42900
 3849.40000 3236.00000    1.69700   20.70000   56.58600
 3849.50000 3321.00000    1.61800   20.44100   67.96500
 3849.60000 3369.00000    1.99100   22.12300   63.65900
 3849.70000 3230.00000    1.59900   20.95900   63.96700
 3849.80000 3261.00000    1.66700   20.18200   64.58200
 3849.90000 3131.00000    1.52000   19.66500   59.96900
 3850.00000 3059.00000    1.67700   18.37100   56.27900
 3850.10000 3251.00000    1.58900   17.85400   59.35400
 3850.20000 3264.00000    1.77500   26.00400   63.04400
 3850.30000 3211.00000    1.51000   20.95900   64.58200
 3850.40000 3339.00000    1.57900   25.74500   55.66300
 3850.50000 3249.00000    1.63800   20.70000   56.89400
 3850.60000 3329.00000    1.53000   21.08800   60.58400
 3850.70000 3268.00000    1.50100   22.25200   62.73700
 3850.80000 3176.00000    1.73600   19.66500   62.12200
 3850.90000 3280.00000    1.72600   20.82900   55.35600
 3851.00000 3275.00000    1.50100   21.60500   59.04600
 3851.10000 3301.00000    1.86300   21.21700   67.04200
 3851.20000 3353.00000    1.90300   20.05300   55.97100
