~Version ---------------------------------------------------
VERS.   2.0 : CWLS log ASCII Standard -VERSION 2.0
WRAP.    NO : One line per depth step
DLM . SPACE : Column Data Section Delimiter
~Well ------------------------------------------------------
STRT.m    3837.00000 : START DEPTH
STOP.m    4016.70000 : STOP DEPTH
STEP.m       0.10000 : STEP
NULL.       -9999.25 : NULL VALUE
COMP.                : COMPANY
WELL. Volve 15_9-19A : WELL
FLD .                : FIELD
LOC .                : LOCATION
PROV.                : PROVINCE
CNTY.                : COUNTY
STAT.                : STATE
CTRY.                : COUNTRY
SRVC.                : SERVICE COMPANY
DATE.                : DATE
UWI .                : UNIQUE WELL ID
API .                : API NUMBER
~Curve Information -----------------------------------------
DEPTH.m   [3837.  3837.1 3837.2 ... 4016.5 4016.6 4016.7] : DEPTH
GR   .c/min           [3047 3343 3174 ... 3107 2945 2783] : GR
K    .%         [1.697 1.462 1.618 ... 1.442 1.53  1.618] : K
U    .ppm [17.854 17.727 19.406 ... 19.018 21.735 24.452] : U
TH   .ppm [62.429 69.207 61.814 ... 67.965 64.274 60.583] : TH
~Params ----------------------------------------------------
~Other -----------------------------------------------------
~ASCII -----------------------------------------------------
# ...
 3895.90000 3156.00000    1.73600   21.47600   51.97300
 3896.00000 3087.00000    1.70700   22.12300   53.81800
 3896.10000 3355.00000    1.83400   25.23200   67.66900
 3896.20000 3330.00000    1.60800   25.48700   61.81400
 3896.30000 3213.00000    1.70700   20.31500   62.13200
 3896.40000 3152.00000    1.47100   22.25200   63.35200
 3896.50000 3308.00000    1.80500   24.06400   58.73900
 3896.60000 3321.00000    1.63800   22.64000   56.58600
 3896.70000 3260.00000    1.92200   23.41700   59.96900
 3896.80000 3301.00000    1.60900   24.19700   64.90000
 3896.90000 3188.00000    1.60800   20.95900   56.89400
 3897.00000 3151.00000    1.52000   19.53500   59.35400
 3897.10000 3298.00000    1.66700   18.63000   62.73700
 3897.20000 3346.00000    0.00155   21.47600   59.04600
 3897.30000 3322.00000    1.62800   20.70000   62.12200
 3897.40000 3357.00000    1.63800   20.57000   62.73700
 3897.50000 3253.00000    1.76500   20.82900   71.04000
 3897.60000 3182.00000    1.68700   20.82900   61.50700
 3897.70000 3165.00000    1.50100   22.89900   67.04200
 3897.80000 3105.00000    1.58900   22.38200   57.81600
 3897.90000 2968.00000    1.62800   21.86400   58.73900
 3898.00000 3105.00000    1.56900   24.19300   63.96700
 3898.10000 3083.00000    1.39300   21.08800   63.65900
 3898.20000 2887.00000    1.46100   19.40600   53.51100
 3898.30000 3056.00000    1.56900   21.60500   59.35400
 3898.40000 3082.00000    1.60800   23.02900   63.35200
 3898.50000 3004.00000    1.56900   18.24200   62.12200
 3898.60000 2986.00000    1.49100   20.31200   61.19900
 3898.70000 2878.00000    1.65700   17.07700   59.66100
 3898.80000 2771.00000    1.37300   19.40600   61.19900
 3898.90000 2881.00000    1.58900   19.92400   63.96700
 3899.00000 2862.00000    1.62800   17.33600   63.04400
 3899.10000 2910.00000    1.47100   20.82900   64.88900
 3899.20000 2818.00000    1.27500   16.30100   54.74100
 3899.30000 2929.00000    1.63800   18.75900   61.50700
 3899.40000 2701.00000    1.45200   19.14700   55.35600
 3899.50000 2941.00000    1.40200   22.51100   59.66100
 3899.60000 2861.00000    1.55000   16.81900   61.19900
 3899.70000 2892.00000    1.74600   17.33600   59.04600
 3899.80000 2839.00000    1.66700   21.86400   61.81400
 3899.90000 2921.00000    1.59900   20.18200   58.43100
 3900.00000 2818.00000    1.78500   21.08800   58.73900
 3900.10000 2821.00000    1.67700   20.05300   52.58800
 3900.20000 2914.00000    1.42200   21.73500   70.42500
 3900.30000 2787.00000    1.47100   18.75900   60.27600
 3900.40000 2858.00000    1.68700   18.75900   60.58400
 3900.50000 2876.00000    1.48100   16.43000   54.74100
 3900.60000 2830.00000    1.40200   22.77000   58.73900
 3900.70000 2929.00000    1.58900   16.81900   60.89200
 3900.80000 2882.00000    1.58900   20.05300   68.88700
 3900.90000 2818.00000    1.45200   17.72400   49.51300
 3901.00000 2827.00000    1.27500   22.12300   57.20100
 3901.10000 2914.00000    1.60800   18.63000   55.04800
 3901.20000 2956.00000    1.43200   22.38200   64.27400
 3901.30000 2983.00000    1.49100   21.21700   56.89400
 3901.40000 2838.00000    1.52000   18.11200   61.19900
 3901.50000 2904.00000    1.62800   19.53500   63.96700
 3901.60000 2917.00000    1.42200   20.82900   60.89200
 3901.70000 2925.00000    1.37300   20.18200   61.50700
 3901.80000 2952.00000    1.52000   24.96900   67.96500
 3901.90000 2908.00000    1.48100   20.44100   56.27900
 3902.00000 2959.00000    1.61800   19.53500   62.12200
 3902.10000 3010.00000    1.79500   20.18200   58.43100
 3902.20000 2978.00000    1.44200   21.60500   59.04600
 3902.30000 2973.00000    1.81400   23.67500   60.89200
 3902.40000 2836.00000    1.33400   20.31200   56.27900
 3902.50000 2906.00000    1.39300   22.89900   59.96900
 3902.60000 2978.00000    1.55900   20.70000   57.81600
 3902.70000 2955.00000    1.57900   21.34700   64.27400
 3902.80000 3026.00000    1.50100   21.34700   61.81400
 3902.90000 2915.00000    1.54000   19.92400   59.35400
 3903.00000 2902.00000    1.68700   19.79400   59.96900
 3903.10000 2975.00000    1.54000   20.70000   61.50700
 3903.20000 2930.00000    1.69700   18.75900   58.43100
 3903.30000 3030.00000    1.74600   17.46500   63.96700
 3903.40000 2987.00000    1.39300   21.60500   60.27600
 3903.50000 3047.00000    1.51000   20.18200   66.12000
 3903.60000 2994.00000    1.49100   19.66500   54.12600
 3903.70000 3039.00000    1.66700   21.73500   64.58200
 3903.80000 3006.00000    1.79500   23.54600   54.12600
 3903.90000 2856.00000    1.42200   19.14700   61.81400
 3904.00000 3021.00000    1.61800   23.15800   60.89200
 3904.10000 3078.00000    1.48100   21.21700   64.88900
 3904.20000 2980.00000    1.65700   21.73500   52.28100
 3904.30000 2930.00000    1.44200   22.89900   57.50900
 3904.40000 2935.00000    1.44200   19.01800   55.35600
 3904.50000 2899.00000    1.48100   20.31200   61.50700
 3904.60000 2927.00000    1.49100   19.40600   59.04600
 3904.70000 3043.00000    1.51000   21.60500   54.43300
 3904.80000 3037.00000    1.64800   19.92400   63.35200
 3904.90000 2931.00000    1.40200   21.99400   59.35400
 3905.00000 3004.00000    1.80500   20.18200   64.58200
 3905.10000 3083.00000    1.56900   21.08800   61.81400
 3905.20000 3042.00000    1.63800   20.31200   57.20100
 3905.30000 2954.00000    1.52000   19.92400   59.96900
 3905.40000 3019.00000    1.55000   20.18200   63.96700
 3905.50000 3104.00000    1.55900   21.99400   72.88500
 3905.60000 3178.00000    1.58900   23.67500   65.50500
 3905.70000 2965.00000    1.49100   17.59500   63.96700
 3905.80000 3005.00000    1.39300   21.99400   65.50500
 3905.90000 3046.00000    1.69700   23.80500   65.81200
 3906.00000 3046.00000    1.53000   23.54600   60.27600
 3906.10000 3156.00000    1.84400   20.95900   58.43100
 3906.20000 2978.00000    1.54000   21.08800   55.04800
 3906.30000 2946.00000    1.43200   20.82900   60.89200
 3906.40000 3079.00000    1.50100   20.95900   55.66300
 3906.50000 3112.00000    1.54000   20.95900   58.12400
 3906.60000 3073.00000    1.71600   23.93400   66.12000
 3906.70000 3043.00000    1.53000   17.46500   63.96700
 3906.80000 2934.00000    1.38300   17.72400   60.58400
 3906.90000 2947.00000    1.53000   18.63000   55.97100
 3907.00000 2882.00000    1.50100   18.50000   59.96900
 3907.10000 2943.00000    1.65700   20.31200   55.97100
 3907.20000 3060.00000    1.63800   21.34700   64.88900
 3907.30000 3262.00000    1.57900   19.40600   61.81400
 3907.40000 3702.00000    1.66800   23.55000   66.74600
 3907.50000 3789.00000    2.06000   24.97300   58.13300
 3907.60000 3416.00000    1.50100   20.44100   62.42900
 3907.70000 3085.00000    1.54000   18.75900   55.97100
 3907.80000 3229.00000    1.57900   22.51100   59.66100
 3907.90000 3357.00000    1.90300   23.80500   57.50900
 3908.00000 3386.00000    1.88300   22.89900   55.66300
 3908.10000 3206.00000    1.67700   22.77000   65.19700
 3908.20000 3129.00000    1.73600   22.77400   53.52000
 3908.30000 3012.00000    1.49100   20.95900   58.43100
 3908.40000 2810.00000    1.59900   20.05300   62.73700
 3908.50000 2913.00000    1.44200   19.01800   54.43300
 3908.60000 3063.00000    1.55900   18.63000   62.42900
 3908.70000 3094.00000    1.55000   21.08800   51.66600
 3908.80000 3114.00000    1.45200   18.88900   66.73500
 3908.90000 3037.00000    1.43200   22.12300   61.50700
 3909.00000 3106.00000    1.66700   20.05300   67.65700
 3909.10000 3060.00000    1.75600   21.86400   57.81600
 3909.20000 3176.00000    1.74600   21.86400   67.96500
 3909.30000 3105.00000    1.80500   20.18200   63.04400
 3909.40000 3096.00000    1.52000   20.18200   66.73500
 3909.50000 3229.00000    1.67700   24.58100   59.66100
 3909.60000 3155.00000    1.62800   21.35000   57.21100
 3909.70000 3197.00000    1.58900   21.99400   56.89400
 3909.80000 3142.00000    1.55000   23.80500   62.42900
 3909.90000 3071.00000    1.50100   21.99400   51.97300
 3910.00000 3079.00000    1.78500   21.99400   57.20100
 3910.10000 3145.00000    1.60800   23.02900   56.89400
