~Version ---------------------------------------------------
VERS.   2.0 : CWLS log ASCII Standard -VERSION 2.0
WRAP.    NO : One line per depth step
DLM . SPACE : Column Data Section Delimiter
~Well ------------------------------------------------------
STRT.m    3837.00000 : START DEPTH
STOP.m    4016.70000 : STOP DEPTH
STEP.m       0.10000 : STEP
NULL.       -9999.25 : NULL VALUE
COMP.                : COMPANY
WELL. Volve 15_9-19A : WELL
FLD .                : FIELD
LOC .                : LOCATION
PROV.                : PROVINCE
CNTY.                : COUNTY
STAT.                : STATE
CTRY.                : COUNTRY
SRVC.                : SERVICE COMPANY
DATE.                : DATE
UWI .                : UNIQUE WELL ID
API .                : API NUMBER
~Curve Information -----------------------------------------
DEPTH.m   [3837.  3837.1 3837.2 ... 4016.5 4016.6 4016.7] : DEPTH
GR   .c/min           [3047 3343 3174 ... 3107 2945 2783] : GR
K    .%         [1.697 1.462 1.618 ... 1.442 1.53  1.618] : K
U    .ppm [17.854 17.727 19.406 ... 19.018 21.735 24.452] : U
TH   .ppm [62.429 69.207 61.814 ... 67.965 64.274 60.583] : TH
~Params ----------------------------------------------------
~Other -----------------------------------------------------
~ASCII -----------------------------------------------------
# ...
 3867.30000 3076.00000    1.33400   19.27300   56.57700
 3867.40000 2901.00000    1.58900   17.20700   60.27600
 3867.50000 2812.00000    1.51000   19.53500   61.81400
 3867.60000 2816.00000    1.36300   19.14700   52.58800
 3867.70000 2847.00000    1.32400   19.53500   59.35400
 3867.80000 2778.00000    1.57900   17.46300   53.80900
 3867.90000 2803.00000    1.62800   16.30100   64.27400
 3868.00000 2882.00000    1.58900   19.27700   59.96900
 3868.10000 2816.00000    1.45200   16.17200   58.73900
 3868.20000 2823.00000    1.25500   18.75900   62.12200
 3868.30000 2798.00000    1.40200   16.30100   58.12400
 3868.40000 2913.00000    1.53000   17.98300   61.19900
 3868.50000 2789.00000    1.22600   20.44100   60.27600
 3868.60000 2794.00000    1.48100   19.27700   52.28100
 3868.70000 2788.00000    1.49100   18.75900   65.50500
 3868.80000 2805.00000    1.57900   16.17200   61.19900
 3868.90000 2872.00000    1.48100   17.72400   63.04400
 3869.00000 2767.00000    1.55900   17.46500   59.66100
 3869.10000 2772.00000    1.37300   14.74900   61.81400
 3869.20000 2749.00000    1.46100   16.81900   63.65900
 3869.30000 2787.00000    1.41200   19.27700   55.35600
 3869.40000 2784.00000    1.37300   17.59500   57.20100
 3869.50000 2797.00000    1.50100   17.85400   66.73500
 3869.60000 2784.00000    1.39300   19.53500   58.73900
 3869.70000 2845.00000    1.41200   18.24200   62.42900
 3869.80000 2722.00000    1.55900   17.46300   60.57400
 3869.90000 2761.00000    1.41200   16.68900   60.58400
 3870.00000 2743.00000    1.57900   23.54600   59.35400
 3870.10000 2780.00000    1.35300   18.75900   62.42900
 3870.20000 2804.00000    1.45200   19.92400   51.35800
 3870.30000 2710.00000    1.41200   18.63000   53.20300
 3870.40000 2820.00000    1.43200   18.50000   62.73700
 3870.50000 2825.00000    1.62800   18.37100   66.12000
 3870.60000 2686.00000    1.42200   17.59500   61.81400
 3870.70000 2830.00000    1.65700   16.94800   63.35200
 3870.80000 2902.00000    1.59900   17.72400   59.96900
 3870.90000 2785.00000    1.48100   18.11200   65.50500
 3871.00000 2712.00000    1.43200   15.91300   64.27400
 3871.10000 2821.00000    1.30400   21.34700   59.66100
 3871.20000 2862.00000    1.69700   17.46500   60.27600
 3871.30000 2889.00000    1.53000   16.43000   68.58000
 3871.40000 2840.00000    1.53000   19.53500   63.96700
 3871.50000 2740.00000    1.43200   19.01800   55.66300
 3871.60000 2732.00000    1.48100   15.78400   62.12200
 3871.70000 2841.00000    1.49100   19.14700   63.65900
 3871.80000 2767.00000    1.47100   15.91300   63.65900
 3871.90000 2795.00000    1.58900   19.27700   63.65900
 3872.00000 2747.00000    1.58900   16.30100   61.81400
 3872.10000 2821.00000    1.52000   15.65400   62.12200
 3872.20000 2778.00000    1.40200   20.05000   56.57700
 3872.30000 2698.00000    1.43200   17.20700   67.35000
 3872.40000 2744.00000    1.28500   18.63000   59.96900
 3872.50000 2888.00000    1.40200   19.27700   60.27600
 3872.60000 2851.00000    1.36300   19.27700   57.81600
 3872.70000 2909.00000    1.32400   18.63000   61.50700
 3872.80000 2800.00000    1.60800   17.20700   58.43100
 3872.90000 2830.00000    1.40200   16.81900   55.97100
 3873.00000 2836.00000    1.24600   17.59500   59.04600
 3873.10000 2843.00000    1.62800   17.98300   55.97100
 3873.20000 2942.00000    1.62800   19.01800   69.50200
 3873.30000 2828.00000    1.63800   20.31200   56.89400
 3873.40000 2854.00000    1.36300   19.01800   63.35200
 3873.50000 2821.00000    1.38300   20.44100   56.27900
 3873.60000 2874.00000    1.57900   17.59500   71.96300
 3873.70000 2829.00000    1.53000   17.59500   63.65900
 3873.80000 2929.00000    1.90300   21.60500   51.97300
 3873.90000 2864.00000    1.54000   17.20700   61.50700
 3874.00000 2803.00000    1.45200   16.94800   63.04400
 3874.10000 2840.00000    1.53000   17.98300   55.04800
 3874.20000 2959.00000    1.53000   19.14700   67.65700
 3874.30000 3067.00000    1.50100   19.53500   61.81400
 3874.40000 3145.00000    1.71600   23.54600   68.27200
 3874.50000 2996.00000    1.36300   19.40600   58.43100
 3874.60000 3116.00000    1.77500   17.46500   59.04600
 3874.70000 3026.00000    1.80500   20.70000   60.58400
 3874.80000 3226.00000    1.68700   22.38200   59.66100
 3874.90000 3044.00000    1.53000   18.63000   58.12400
 3875.00000 3212.00000    1.50100   20.18200   68.88700
 3875.10000 3234.00000    1.68700   19.92400   63.65900
 3875.20000 3377.00000    1.75600   22.25200   64.88900
 3875.30000 3435.00000    1.77500   20.31500   59.97900
 3875.40000 3513.00000    1.93200   24.06800   62.74700
 3875.50000 3496.00000    1.86400   24.19700   68.89900
 3875.60000 3853.00000    1.82500   25.23200   55.98000
 3875.70000 3647.00000    1.89300   24.97300   59.97900
 3875.80000 3566.00000    1.83400   24.06800   62.44000
 3875.90000 3377.00000    1.57900   25.10300   59.97900
 3876.00000 3322.00000    1.88300   19.66800   61.82400
 3876.10000 3282.00000    1.65700   21.47600   59.96900
 3876.20000 3309.00000    1.61900   21.60900   61.82400
 3876.30000 3210.00000    1.69700   21.60500   59.66100
 3876.40000 3314.00000    1.52000   19.14700   63.65900
 3876.50000 3306.00000    1.56900   20.70300   60.59400
 3876.60000 3282.00000    1.55900   20.95900   63.04400
 3876.70000 3209.00000    1.51100   21.60900   56.90300
 3876.80000 3268.00000    1.67700   21.99400   59.35400
 3876.90000 3104.00000    1.39300   22.25200   59.66100
 3877.00000 3052.00000    1.41200   21.34700   57.20100
 3877.10000 3120.00000    1.56900   20.95900   56.58600
 3877.20000 3028.00000    1.62800   18.11200   60.27600
 3877.30000 3104.00000    1.70700   22.77400   56.28800
 3877.40000 3163.00000    1.77500   21.21700   58.43100
 3877.50000 3123.00000    1.55000   20.31200   56.58600
 3877.60000 3168.00000    1.84400   19.53500   54.12600
 3877.70000 3241.00000    1.43200   20.05300   59.04600
 3877.80000 3163.00000    1.56900   22.38200   50.12800
 3877.90000 3046.00000    1.76500   19.53500   59.66100
 3878.00000 3181.00000    1.58900   21.99400   60.27600
 3878.10000 3277.00000    1.58900   23.02900   63.96700
 3878.20000 3191.00000    1.62800   23.28700   63.96700
 3878.30000 3198.00000    1.58900   20.44100   67.96500
 3878.40000 3133.00000    1.57900   19.79400   53.51100
 3878.50000 3133.00000    1.62800   21.73500   59.66100
 3878.60000 3253.00000    1.47100   21.99400   61.50700
 3878.70000 3077.00000    1.60800   22.64000   61.19900
 3878.80000 3164.00000    1.72600   21.60500   58.73900
 3878.90000 3209.00000    1.64800   21.86400   68.88700
 3879.00000 3159.00000    1.68700   22.38200   63.65900
 3879.10000 3212.00000    1.77500   20.31200   62.12200
 3879.20000 3208.00000    1.91200   21.60500   60.89200
 3879.30000 3123.00000    2.00100   20.44100   59.04600
 3879.40000 3215.00000    1.59900   21.08800   60.89200
 3879.50000 3091.00000    1.77500   17.98300   56.58600
 3879.60000 3133.00000    1.83400   23.67500   54.74100
 3879.70000 3088.00000    1.63800   21.21700   55.66300
 3879.80000 3186.00000    1.73600   21.86400   61.81400
 3879.90000 3227.00000    1.45200   23.80500   69.81000
 3880.00000 3174.00000    1.81400   20.57000   61.19900
 3880.10000 3173.00000    1.53000   20.70000   57.50900
 3880.20000 3280.00000    1.56900   23.15800   59.66100
 3880.30000 3282.00000    1.55900   24.96900   63.65900
 3880.40000 3461.00000    1.83400   20.05600   65.82300
 3880.50000 3238.00000    1.35300   23.02900   52.89600
 3880.60000 3171.00000    1.61900   20.83300   56.28800
 3880.70000 3254.00000    1.52000   24.19300   61.50700
 3880.80000 3238.00000    1.62800   23.02900   67.65700
 3880.90000 3211.00000    1.66700   21.21700   62.12200
 3881.00000 3240.00000    1.51000   20.95900   65.50500
 3881.10000 3189.00000    1.61800   22.64000   61.50700
 3881.20000 3275.00000    1.59900   24.06400   66.42700
 3881.30000 3321.00000    1.79500   26.52200   61.50700
 3881.40000 3099.00000    1.75600   22.89900   59.66100
 3881.50000 3058.00000    1.47100   19.79400   63.35200
