~Version ---------------------------------------------------
VERS.   2.0 : CWLS log ASCII Standard -VERSION 2.0
WRAP.    NO : One line per depth step
DLM . SPACE : Column Data Section Delimiter
~Well ------------------------------------------------------
STRT.m    3837.00000 : START DEPTH
STOP.m    4016.70000 : STOP DEPTH
STEP.m       0.10000 : STEP
NULL.       -9999.25 : NULL VALUE
COMP.                : COMPANY
WELL. Volve 15_9-19A : WELL
FLD .                : FIELD
LOC .                : LOCATION
PROV.                : PROVINCE
CNTY.                : COUNTY
STAT.                : STATE
CTRY.                : COUNTRY
SRVC.                : SERVICE COMPANY
DATE.                : DATE
UWI .                : UNIQUE WELL ID
API .                : API NUMBER
~Curve Information -----------------------------------------
DEPTH.m   [3837.  3837.1 3837.2 ... 4016.5 4016.6 4016.7] : DEPTH
GR   .c/min           [3047 3343 3174 ... 3107 2945 2783] : GR
K    .%         [1.697 1.462 1.618 ... 1.442 1.53  1.618] : K
U    .ppm [17.854 17.727 19.406 ... 19.018 21.735 24.452] : U
TH   .ppm [62.429 69.207 61.814 ... 67.965 64.274 60.583] : TH
~Params ----------------------------------------------------
~Other -----------------------------------------------------
~ASCII -----------------------------------------------------
# ...
 3910.20000 3100.00000    1.50100   21.34700   58.73900
 3910.30000 3025.00000    1.57900   20.57000   59.35400
 3910.40000 3220.00000    1.55000   22.64000   61.50700
 3910.50000 3122.00000    1.60800   23.54600   62.42900
 3910.60000 3106.00000    1.65700   21.21700   57.81600
 3910.70000 3200.00000    1.67700   26.39200   57.20100
 3910.80000 3044.00000    1.58900   20.05300   59.35400
 3910.90000 3134.00000    1.46100   23.93400   59.04600
 3911.00000 3192.00000    1.88300   21.99700   64.28500
 3911.10000 3250.00000    1.54000   21.08800   62.73700
 3911.20000 3190.00000    1.72600   20.05300   56.27900
 3911.30000 3259.00000    1.70700   23.41700   55.66300
 3911.40000 3292.00000    1.52000   22.12300   59.04600
 3911.50000 3274.00000    1.56000   26.26700   53.21200
 3911.60000 3244.00000    1.59900   19.53500   72.88500
 3911.70000 3244.00000    1.65800   23.03200   63.97800
 3911.80000 3167.00000    1.64800   22.25200   63.04400
 3911.90000 3119.00000    1.55000   21.86400   61.19900
 3912.00000 3165.00000    1.50100   21.86400   59.04600
 3912.10000 3188.00000    1.59900   24.06400   54.43300
 3912.20000 3184.00000    1.61800   22.77000   59.66100
 3912.30000 3185.00000    1.53000   22.51100   55.66300
 3912.40000 3220.00000    1.78500   21.99400   58.43100
 3912.50000 3238.00000    1.72600   22.89900   75.03800
 3912.60000 3146.00000    1.47100   21.34700   61.81400
 3912.70000 3175.00000    1.34400   23.15800   65.50500
 3912.80000 3043.00000    1.39300   22.89900   54.43300
 3912.90000 2974.00000    1.63800   20.95900   59.35400
 3913.00000 3046.00000    1.46100   20.57000   57.20100
 3913.10000 3269.00000    1.60900   20.44400   64.59300
 3913.20000 3220.00000    1.77500   21.34700   58.73900
 3913.30000 3309.00000    1.76500   25.09900   59.96900
 3913.40000 3342.00000    1.58900   22.77000   64.27400
 3913.50000 3237.00000    1.84400   19.92400   68.27200
 3913.60000 3169.00000    1.80500   18.63000   52.58800
 3913.70000 3279.00000    1.85400   24.06400   57.50900
 3913.80000 3165.00000    1.75600   21.21700   66.12000
 3913.90000 3244.00000    1.56900   20.95900   57.20100
 3914.00000 3273.00000    1.55000   20.70000   63.65900
 3914.10000 3348.00000    1.59900   19.92400   51.05000
 3914.20000 3380.00000    1.63800   20.44400   62.13200
 3914.30000 3332.00000    1.58900   20.31200   59.35400
 3914.40000 3319.00000    1.56900   19.66800   58.13300
 3914.50000 3395.00000    1.67700   24.32600   64.90000
 3914.60000 3259.00000    1.51000   22.12300   60.58400
 3914.70000 3224.00000    1.54000   19.66500   66.12000
 3914.80000 3092.00000    1.50100   20.70000   65.50500
 3914.90000 3199.00000    1.66700   21.21700   50.74300
 3915.00000 3459.00000    1.65800   27.04400   55.98000
 3915.10000 3439.00000    1.56000   21.48000   55.98000
 3915.20000 3379.00000    1.78500   24.06800   63.97800
 3915.30000 3361.00000    1.66800   22.64400   60.90200
 3915.40000 3414.00000    1.60900   22.51500   60.90200
 3915.50000 3420.00000    1.68700   22.64000   64.27400
 3915.60000 3205.00000    1.55000   21.08800   56.27900
 3915.70000 3153.00000    1.75600   19.15100   60.59400
 3915.80000 3412.00000    1.46200   21.86800   64.59300
 3915.90000 3434.00000    1.72600   20.82900   64.58200
 3916.00000 3696.00000    1.50100   21.99700   56.28800
 3916.10000 3426.00000    1.66800   20.57400   63.05500
 3916.20000 3388.00000    1.56900   22.77400   62.13200
 3916.30000 3436.00000    1.58900   22.51100   55.97100
 3916.40000 3553.00000    1.67700   21.09100   71.05200
 3916.50000 3461.00000    1.51000   20.31200   59.35400
 3916.60000 3539.00000    1.66700   23.15800   64.27400
 3916.70000 3544.00000    1.70700   24.58500   63.36200
 3916.80000 3503.00000    1.86400   22.12700   63.36200
 3916.90000 3391.00000    1.55000   24.06400   64.27400
 3917.00000 3547.00000    1.55000   24.71000   64.27400
 3917.10000 3644.00000    1.48100   21.35000   68.59100
 3917.20000 3697.00000    1.64800   22.64400   62.44000
 3917.30000 3758.00000    1.71700   21.48000   72.59000
 3917.40000 3810.00000    1.71700   27.43200   60.28700
 3917.50000 3724.00000    1.49100   25.75000   49.82900
 3917.60000 3791.00000    1.88300   23.80900   67.36100
 3917.70000 3422.00000    1.59900   22.25600   59.05600
 3917.80000 3448.00000    1.71600   20.82900   68.58000
 3917.90000 3484.00000    1.61900   20.70300   61.20900
 3918.00000 3685.00000    1.63800   24.19700   61.82400
 3918.10000 3572.00000    1.52000   20.57000   59.04600
 3918.20000 3484.00000    1.57900   23.15800   61.81400
 3918.30000 3476.00000    1.53000   20.05300   56.89400
 3918.40000 3468.00000    1.78500   21.73800   63.05500
 3918.50000 3363.00000    1.63800   20.44400   57.21100
 3918.60000 3438.00000    1.62800   22.77000   65.50500
 3918.70000 3570.00000    1.75600   22.90300   58.44100
 3918.80000 3565.00000    1.74600   20.18600   68.59100
 3918.90000 3583.00000    1.82500   21.99700   66.74600
 3919.00000 3796.00000    1.80500   20.18600   56.59600
 3919.10000 3899.00000    1.78500   23.93800   60.90200
 3919.20000 4003.00000    1.67700   27.30200   60.28700
 3919.30000 3955.00000    1.69700   20.83300   66.74600
 3919.40000 3916.00000    1.80500   21.48000   65.51600
 3919.50000 3721.00000    1.73600   20.57400   63.97800
 3919.60000 3682.00000    1.82500   19.02100   56.90300
 3919.70000 3696.00000    2.00100   23.67900   61.82400
 3919.80000 3763.00000    1.77500   23.16200   67.05300
 3919.90000 3681.00000    1.84400   23.93400   55.97100
 3920.00000 3643.00000    1.52000   19.66800   59.05600
 3920.10000 3661.00000    1.92300   21.35000   60.90200
 3920.20000 3734.00000    1.58900   19.79800   59.97900
 3920.30000 3475.00000    1.87300   20.18200   57.20100
 3920.40000 3609.00000    1.68700   22.12300   60.58400
 3920.50000 3515.00000    1.77500   21.86400   60.89200
 3920.60000 3367.00000    1.62800   21.47600   64.58200
 3920.70000 3220.00000    1.66700   20.70000   61.19900
 3920.80000 3286.00000    1.50100   19.27700   62.42900
 3920.90000 3212.00000    1.46100   23.15800   46.74500
 3921.00000 3274.00000    1.71600   22.38200   58.12400
 3921.10000 3579.00000    1.65800   21.48000   65.51600
 3921.20000 3383.00000    1.52000   18.24500   63.05500
 3921.30000 3331.00000    1.79500   16.81900   64.88900
 3921.40000 3321.00000    1.68700   21.21700   59.66100
 3921.50000 3327.00000    1.69700   20.57000   63.04400
 3921.60000 3125.00000    1.55900   21.21700   66.12000
 3921.70000 2993.00000    1.50100   16.43000   62.73700
 3921.80000 3062.00000    1.53000   21.21700   58.73900
 3921.90000 3263.00000    1.89300   19.40600   51.35800
 3922.00000 3522.00000    1.84400   22.64000   66.12000
 3922.10000 3575.00000    1.71700   19.15100   62.44000
 3922.20000 3556.00000    1.40200   22.25200   62.73700
 3922.30000 3698.00000    1.76600   22.25600   62.44000
 3922.40000 3705.00000    1.44200   23.03200   69.82200
 3922.50000 3687.00000    1.87400   23.03200   59.97900
 3922.60000 3662.00000    1.83400   21.86800   60.90200
 3922.70000 3505.00000    1.54000   21.09100   60.28700
 3922.80000 3391.00000    1.69700   20.96200   62.44000
 3922.90000 3329.00000    1.60800   22.38200   59.66100
 3923.00000 3156.00000    1.37300   22.38200   66.73500
 3923.10000 3074.00000    1.61800   17.20700   64.27400
 3923.20000 2915.00000    1.26500   18.75900   54.12600
 3923.30000 2959.00000    1.39300   14.49000   61.50700
 3923.40000 3245.00000    1.52000   20.95900   63.65900
 3923.50000 3644.00000    1.63800   22.90300   62.74700
 3923.60000 3627.00000    1.57900   19.02100   67.66900
 3923.70000 3532.00000    1.71700   23.80900   67.97600
 3923.80000 3270.00000    1.67700   19.53500   55.35600
 3923.90000 3143.00000    1.55900   18.24200   70.42500
 3924.00000 3127.00000    1.55900   19.40600   68.88700
 3924.10000 3046.00000    1.49100   19.66500   60.89200
 3924.20000 2966.00000    1.28500   20.70000   59.66100
 3924.30000 2880.00000    1.42200   17.46500   63.96700
 3924.40000 2901.00000    1.38300   19.40600   63.04400
