~Version ---------------------------------------------------
VERS.   2.0 : CWLS log ASCII Standard -VERSION 2.0
WRAP.    NO : One line per depth step
DLM . SPACE : Column Data Section Delimiter
~Well ------------------------------------------------------
STRT.m    3837.00000 : START DEPTH
STOP.m    4016.70000 : STOP DEPTH
STEP.m       0.10000 : STEP
NULL.       -9999.25 : NULL VALUE
COMP.                : COMPANY
WELL. Volve 15_9-19A : WELL
FLD .                : FIELD
LOC .                : LOCATION
PROV.                : PROVINCE
CNTY.                : COUNTY
STAT.                : STATE
CTRY.                : COUNTRY
SRVC.                : SERVICE COMPANY
DATE.                : DATE
UWI .                : UNIQUE WELL ID
API .                : API NUMBER
~Curve Information -----------------------------------------
DEPTH.m   [3837.  3837.1 3837.2 ... 4016.5 4016.6 4016.7] : DEPTH
GR   .c/min           [3047 3343 3174 ... 3107 2945 2783] : GR
K    .%         [1.697 1.462 1.618 ... 1.442 1.53  1.618] : K
U    .ppm [17.854 17.727 19.406 ... 19.018 21.735 24.452] : U
TH   .ppm [62.429 69.207 61.814 ... 67.965 64.274 60.583] : TH
~Params ----------------------------------------------------
~Other -----------------------------------------------------
~ASCII -----------------------------------------------------
# ...
 3954.00000 3643.00000    1.82500   20.05600   66.43800
 3954.10000 3704.00000    1.73600   21.35000   55.98000
 3954.20000 3660.00000    1.69700   21.99700   62.44000
 3954.30000 3776.00000    1.80500   20.70300   63.36200
 3954.40000 3666.00000    1.62800   20.44400   61.51700
 3954.50000 3352.00000    1.47100   14.87800   66.73500
 3954.60000 3335.00000    1.60800   19.14700   56.58600
 3954.70000 3314.00000    1.67700   17.72400   59.66100
 3954.80000 3324.00000    1.59900   21.86400   62.73700
 3954.90000 3525.00000    1.79500   18.89200   63.67000
 3955.00000 3954.00000    1.44200   21.99700   63.36200
 3955.10000 4616.00000    2.27600   21.22100   72.89800
 3955.20000 4331.00000    1.81500   18.76200   60.28700
 3955.30000 4237.00000    1.63800   22.38500   69.20700
 3955.40000 4188.00000    2.02100   18.24500   68.28400
 3955.50000 4315.00000    1.92300   22.51500   60.59400
 3955.60000 3907.00000    1.71700   20.96200   64.59300
 3955.70000 3651.00000    1.79500   20.83300   61.51700
 3955.80000 3723.00000    1.65800   20.57400   59.67100
 3955.90000 3959.00000    1.88300   21.09100   50.75100
 3956.00000 4664.00000    2.12900   20.96600   61.83500
 3956.10000 4238.00000    2.02100   23.55000   60.90200
 3956.20000 3727.00000    1.76600   19.92700   56.59600
 3956.30000 3503.00000    1.87400   21.09100   63.36200
 3956.40000 3329.00000    1.74600   18.11200   66.42700
 3956.50000 3237.00000    1.52000   22.12300   60.58400
 3956.60000 3396.00000    1.66800   20.70300   47.98300
 3956.70000 3343.00000    1.65800   20.57400   63.36200
 3956.80000 3386.00000    1.70700   20.44100   60.27600
 3956.90000 3224.00000    1.65700   21.73500   62.73700
 3957.00000 3183.00000    1.49100   19.14700   65.19700
 3957.10000 3828.00000    2.08900   22.51500   61.51700
 3957.20000 5043.00000    2.07000   23.16600   61.22000
 3957.30000 6067.00000    2.39400   28.73500   61.23000
 3957.40000 5199.00000    2.07000   26.27200   60.91200
 3957.50000 4230.00000    1.77500   22.77400   57.82600
 3957.60000 4078.00000    1.61900   22.38500   62.44000
 3957.70000 4190.00000    1.96200   23.16200   59.05600
 3957.80000 4327.00000    1.88400   22.64800   61.52700
 3957.90000 4498.00000    2.03000   22.25600   66.43800
 3958.00000 4454.00000    2.02100   20.31500   62.13200
 3958.10000 4216.00000    2.01100   18.63300   64.59300
 3958.20000 3868.00000    2.11900   21.09100   65.20800
 3958.30000 3870.00000    1.84400   21.73800   71.05200
 3958.40000 3776.00000    1.39300   21.60500   62.42900
 3958.50000 3888.00000    1.63800   22.12700   68.28400
 3958.60000 3662.00000    1.74600   22.77000   56.58600
 3958.70000 3810.00000    1.82500   18.50400   63.36200
 3958.80000 3562.00000    1.72600   17.85400   59.04600
 3958.90000 3463.00000    1.52000   19.14700   66.73500
 3959.00000 3362.00000    1.65700   18.37100   63.65900
 3959.10000 3305.00000    1.59900   19.79400   65.19700
 3959.20000 3555.00000    1.79500   20.05300   60.27600
 3959.30000 3714.00000    1.70700   21.48000   59.97900
 3959.40000 3601.00000    1.71600   21.21700   57.50900
 3959.50000 3499.00000    1.67700   20.70300   59.05600
 3959.60000 3491.00000    1.59900   22.12300   63.04400
 3959.70000 3650.00000    1.84400   19.79800   57.51800
 3959.80000 3747.00000    1.66800   19.53900   64.59300
 3959.90000 3903.00000    1.49100   19.02100   66.13100
 3960.00000 4415.00000    1.77500   21.86800   59.97900
 3960.10000 4740.00000    2.22700   24.20100   58.75900
 3960.20000 4965.00000    2.17800   23.81300   69.83300
 3960.30000 5391.00000    2.14900   25.62900   60.92200
 3960.40000 5563.00000    2.10000   25.24100   60.92200
 3960.50000 5591.00000    2.02100   26.92300   61.84500
 3960.60000 5444.00000    2.36500   24.85200   57.53800
 3960.70000 4854.00000    2.29600   25.49500   65.21900
 3960.80000 4428.00000    2.06000   25.49100   59.67100
 3960.90000 4126.00000    1.88300   25.23200   62.13200
 3961.00000 3821.00000    1.80500   21.48000   56.59600
 3961.10000 3942.00000    1.85400   21.73800   66.74600
 3961.20000 3636.00000    1.66700   18.50000   57.81600
 3961.30000 3590.00000    1.52000   20.70000   61.19900
 3961.40000 3628.00000    1.71700   21.60900   60.28700
 3961.50000 3750.00000    1.73600   21.60900   61.82400
 3961.60000 3931.00000    1.65800   25.10300   60.28700
 3961.70000 4274.00000    2.10900   24.58500   57.21100
 3961.80000 4121.00000    1.92300   24.58500   59.36400
 3961.90000 3725.00000    1.55900   20.95900   66.73500
 3962.00000 3599.00000    1.54000   17.85700   59.36400
 3962.10000 3644.00000    1.61900   20.18600   64.28500
 3962.20000 3650.00000    1.67700   20.83300   55.05800
 3962.30000 3589.00000    1.82500   19.66800   63.05500
 3962.40000 3515.00000    1.64800   18.76200   60.28700
 3962.50000 3229.00000    1.56000   21.99700   52.90500
 3962.60000 3491.00000    1.75600   23.68300   62.75800
 3962.70000 3487.00000    1.56900   23.29100   57.82600
 3962.80000 3528.00000    1.72600   23.67900   54.13500
 3962.90000 3310.00000    1.56000   21.73800   63.67000
 3963.00000 3287.00000    1.67700   18.63000   56.89400
 3963.10000 3518.00000    1.62800   19.28000   69.20700
 3963.20000 3830.00000    1.99100   20.70300   55.98000
 3963.30000 4174.00000    1.98100   20.96200   63.97800
 3963.40000 4229.00000    1.84400   23.80900   65.82300
 3963.50000 4196.00000    2.03000   20.83300   61.51700
 3963.60000 4325.00000    1.55000   23.80900   56.90300
 3963.70000 5062.00000    2.22700   26.27200   63.37300
 3963.80000 5743.00000    2.27600   23.42500   65.21900
 3963.90000 5144.00000    2.07000   24.58900   64.29600
 3964.00000 4313.00000    1.79500   20.70300   63.36200
 3964.10000 4074.00000    1.76600   22.12700   62.44000
 3964.20000 4122.00000    1.53000   19.02100   74.74300
 3964.30000 4053.00000    1.92300   21.99700   61.51700
 3964.40000 4046.00000    2.06000   22.51500   59.67100
 3964.50000 3771.00000    1.70700   23.55000   59.97900
 3964.60000 3680.00000    1.57900   21.21700   65.19700
 3964.70000 3875.00000    1.72600   20.70300   68.59100
 3964.80000 3546.00000    1.59900   20.83300   56.90300
 3964.90000 3591.00000    1.78500   20.57000   59.04600
 3965.00000 3728.00000    1.65800   19.79800   62.74700
 3965.10000 3983.00000    1.75600   21.99700   56.90300
 3965.20000 3899.00000    1.98100   20.57400   61.51700
 3965.30000 3806.00000    1.57900   21.47600   69.50200
 3965.40000 3992.00000    1.82500   20.44400   62.44000
 3965.50000 4302.00000    1.88300   21.99700   63.67000
 3965.60000 4044.00000    1.47100   23.29100   56.59600
 3965.70000 3908.00000    1.92300   21.48000   67.97600
 3965.80000 3658.00000    1.87400   20.70300   65.82300
 3965.90000 3675.00000    2.00100   21.86800   54.44200
 3966.00000 3769.00000    1.85400   22.51500   57.82600
 3966.10000 3755.00000    1.72600   21.60900   71.36000
 3966.20000 3602.00000    1.92300   21.60900   56.28800
 3966.30000 3439.00000    1.91200   23.93400   60.89200
 3966.40000 3304.00000    1.65800   19.02100   65.51600
 3966.50000 3420.00000    1.59900   21.99700   55.98000
 3966.60000 3495.00000    1.70700   23.93800   61.51700
 3966.70000 3511.00000    1.65700   21.34700   51.35800
 3966.80000 3290.00000    1.66700   24.19300   52.89600
 3966.90000 3192.00000    1.58900   20.31200   57.50900
 3967.00000 3340.00000    1.66700   19.01800   59.96900
 3967.10000 3344.00000    1.58900   19.79400   64.88900
 3967.20000 3440.00000    1.46100   21.47600   59.96900
 3967.30000 3681.00000    1.51100   21.73800   60.90200
 3967.40000 4051.00000    1.76600   21.35000   66.13100
 3967.50000 3970.00000    1.73600   20.31500   58.13300
 3967.60000 3855.00000    1.76600   19.53900   59.36400
 3967.70000 3951.00000    1.94200   20.05600   67.97600
 3967.80000 3754.00000    1.73600   21.48000   50.44400
 3967.90000 3634.00000    1.78500   22.89900   59.35400
 3968.00000 3535.00000    1.71700   24.06800   63.36200
 3968.10000 3611.00000    1.73600   22.51100   61.50700
 3968.20000 3775.00000    1.95200   22.12700   59.67100
